run	hr	min	sec	AoA	AoS	dPb	pBar	temp	B1	B2	B3	B4	B5	B6	rpmWT	rho	q	V	Re	rpsM1	rpsM2	iM1	iM2	dPtQ	tM1	tM2	vM1	vM2	pInf	nu	J_M1	J_M2	FX	FY	FZ	MX	MY	MZ	CFX	CFY	CFZ	CMX	CMY	CMZ	CN	CT	CY	CL	CD	CYaw	CMroll	CMpitch	CMpitch25c	CMyaw	delta_e	T_0	thrust	F_meas	Drag_Force	CD_thrust_cor	epsilon_sb	epsilon_wb	epsilon_ss	epsilon_total	V_cor	q_cor	CL_cor1	CD_cor1	CMpitch_cor1	delta_alpha_total	delta_CL	delta_CDw	delta_CMpitch_total	AoA_cor	CL_cor2	CD_cor2	CMpitch_cor2
1	14	0	8	7.0	0	420	101290	286.43	1442.5	-155.8	1849.1	1925.0	-306.4	77.8	0	1.23194272411362	984.38867652	39.9763412793298	456208.297709338	98.43	98.43	0.64	0.64	0	0	0	0	0	101290	1.4456734455218e-05	1.9987195264536	1.9987195264536	13.2747399213173	-1.46092587405618	223.861184144109	-0.335150955395857	-19.4133622311448	-0.509370623752683	0.0620955092191517	-0.0068338013865925	1.04715981678166	-0.0011225502940634	-0.550433160533274	-0.0017060794077268	1.04692198523701	-0.0659840206017581	0.0105338013865925	1.04105981678166	0.0620955092191517	0.0068338013865925	-0.0033180343427176	-0.565734964125379	-0.567934964125379	-0.0053367945455739	10	2.495395504035825	2.6396266384956792	13.27659242519015	15.91621906368583	0.06824121924899615	0.008426426629348418	0.0008369673616833161	-0.00031265240906134964	0.008950741581970385	40.33415917951373	1002.0895589010863	1.0226705648382153	0.06703580823085017	-0.5557418372936486	0.01058272828608418	0	0.007882224603264133	-0.0037951312742518536	7.010582728286084	1.0226705648382153	0.0749180328341143	-0.5595369685679005
2	14	0	53	1.507	0	420	101290	286.43	400.3	-95.8	1000.4	1016.6	-686.8	45.0	0	1.23194272411362	984.38867652	39.9763412793298	456208.297709338	103.61	103.61	0.43	0.43	0	0	0	0	0	101290	1.4456734455218e-05	1.89879319552965	1.89879319552965	3.6877839747272	-0.925059835613591	106.837201882518	-0.712960279523638	-12.8550205999754	-0.303445197757347	0.0172504188525141	-0.0043271703921194	0.499754457998148	-0.0023879799790201	-0.364482439121909	-0.001016355437723	0.500035272758345	0.0041013701487263	0.004280670392119401	0.486064257998148	0.0172504188525141	0.0043271703921194	-0.0028810287853046996	-0.362143120880071	-0.369344520880071	-0.0041594448413603	10	5.76354665013587	5.600121996906738	3.6882986088470453	9.288420605753783	0.03519186333888943	0.008426426629348418	0.0005833277715728234	-0.0006366059003041574	0.008373148500617083	40.31106912137298	1000.9425567735776	0.47802558538102846	0.034609850027865804	-0.35615389221041654	0.00528026936226861	0	0.001962301202879907	-0.0018935868758503708	1.5122802693622686	0.47802558538102846	0.03657215123074571	-0.35804747908626694
3	14	1	39	-0.002	0	420	101290	286.43	-870.8	-167.6	901.8	921.1	-1620.5	89.9	0	1.23194272411362	984.38867652	39.9763412793298	456208.297709338	123.03	123.03	0.28	0.27	0	0	0	0	0	101290	1.4456734455218e-05	1.59907309590204	1.59907309590204	-8.00479211014517	-1.52996076947796	71.9465001350256	-1.2669138813634	-12.5357634694238	-0.596328699718011	-0.0374441718044287	-0.0071567272601324	0.336545543558707	-0.0042433850394301	-0.355430441363871	-0.0019973356675538	0.336546850401838	-0.0374324241259828	0.0071549272601324	0.32034414355870705	-0.0374441718044287	0.0071567272601324	-0.0056601995774328	-0.33837789039490296	-0.344876690394903	-0.005197117130185501	10	16.849310198379662	16.114327009274174	-8.005909187276139	8.108417821998035	0.029924011533281045	0.008426426629348418	0.000535857528493823	-0.0016189947056471994	0.007343289452195041	40.26989912458365	998.899060566832	0.31569070385324516	0.029489324069140933	-0.3334624856894459	0.0035392880854712154	0	0.0008816279352427968	-0.0012692438602455046	0.0015392880854712154	0.31569070385324516	0.03037095200438373	-0.33473172954969144
4	14	2	25	1.495	0	420	101290	286.43	1447.9	-70.1	778.5	812.0	225.7	35.0	0	1.23194272411362	984.38867652	39.9763412793298	456208.297709338	82.02	82.02	0.26	0.26	0	0	0	0	0	101290	1.4456734455218e-05	2.39860964385305	2.39860964385305	13.3258416127889	-0.633996483855698	103.10835762711	-0.157867890599475	-11.174994012601	-0.240248823943497	0.062334548595644	-0.0029656576883251	0.482311970671776	-0.0005287606798145	-0.316848117294602	-0.0008046863170884	0.483774084747077	0.0497299500205141	0.0029131576883251	0.468604970671776	0.062334548595644	0.0029656576883251	-0.000642181552345	-0.327218294844514	-0.334417294844514	-0.003889955625717	10	-3.882611931475598	-3.7597112019547025	13.327701247956371	9.567990046001668	0.036500628277116184	0.008426426629348418	0.0008364099932091954	0.0004933276163981735	0.009756164238955787	40.366357030523496	1003.6900885382984	0.4595934862344526	0.03579870477169493	-0.3209257398010375	0.0052667623998694235	0	0.0019522748852375742	-0.0018887430686547633	1.5002667623998696	0.4595934862344526	0.037750979656932505	-0.3228144828696923
5	14	3	3	3.0	0	420	101290	286.43	-603.0	-48.0	1536.7	1507.6	-1703.5	16.0	0	1.23194272411362	984.38867652	39.9763412793298	456208.297709338	123.03	123.03	0.7	0.69	0	0	0	0	0	101290	1.4456734455218e-05	1.59907309590204	1.59907309590204	-5.55147734473966	-0.547438631514398	144.827045968018	-0.981068416306108	-16.5768765687815	-0.101978441022269	-0.0259682535916671	-0.0025607643382552	0.677460290852704	-0.0032859779197704	-0.470009391103106	-0.0003415652771225	0.675172781685255	-0.0613881971410344	0.0036607643382552003	0.666660290852704	-0.0259682535916671	0.0025607643382552	-0.0034843683400487004	-0.456090161746482	-0.462690161746482	-0.0036496229008817	10	16.08448299083143	15.972158772675435	-5.552252059223138	10.419906713452297	0.04053459941123491	0.008426426629348418	0.00028001234160803434	-0.0016070910503541314	0.007099347920602322	40.2601472346645	998.4153258460613	0.6572944389097995	0.03996513238003529	-0.44968259107496483	0.00690857556265878	0	0.0033591588280344445	-0.002477522853237685	3.0069085755626586	0.6572944389097995	0.043324291208069736	-0.45216011392820254
6	14	3	40	4.5	0	420	101290	286.43	13.1	0.3	1727.5	1685.3	-1305.1	-5.6	0	1.23194272411362	984.38867652	39.9763412793298	456208.297709338	115.79	115.79	0.47	0.46	0	0	0	0	0	101290	1.4456734455218e-05	1.69905832100205	1.69905832100205	0.126388017799647	-0.0030927472164859	177.173780385919	-0.676538655916921	-17.6976608792662	0.028539013597641	0.0005912076900177	-1.44670038307425e-05	0.828769239816045	-0.0022659898619349	-0.501787340896186	9.5588204629978e-05	0.826260806458189	-0.0644350999290054	0.0005144670038307425	0.821419239816045	0.0005912076900177	1.44670038307425e-05	-0.0015205693337149	-0.49660397453850497	-0.501953974538505	-0.0030328532786145965	10	11.970471196137634	12.134032362477637	0.12640565538002352	12.26043801785766	0.04924288720984177	0.008426426629348418	0.0003131183508040424	-0.0012729759407316258	0.007466569039420836	40.274827391435366	999.1435678770716	0.8092888993607229	0.04851569096472803	-0.48927035610029157	0.008420388516779889	0	0.0049901979698937626	-0.0030196825371963765	4.50842038851678	0.8092888993607229	0.05350588893462179	-0.49229003863748794
7	14	4	21	-0.995	0	420	101290	286.43	962.8	-124.1	328.8	380.2	34.1	52.2	0	1.23194272411362	984.38867652	39.9763412793298	456208.297709338	89.48	89.48	0.3	0.29	0	0	0	0	0	101290	1.4456734455218e-05	2.19863615320549	2.19863615320549	8.85198608759231	-1.31267388660428	44.3637183565725	-0.538409783345625	-8.84835611409139	-0.357849232514171	0.0414071075567518	-0.0061403201803208	0.207521028550067	-0.0018033427949127	-0.250880221746939	-0.0011985756111442	0.206770696592493	0.0450044984123764	0.005244820180320801	0.19062452855006698	0.0414071075567518	0.0061403201803208	-0.0027552908352123	-0.256647937920918	-0.262550937920918	-0.0043366740782835	10	-0.1450220909912403	-0.13561727197235385	8.85322139153101	8.717604119558656	0.032971816520894016	0.008426426629348418	0.0012581238072854961	1.674982435788875e-05	0.009701300260991802	40.364163769416464	1003.5810227323864	0.18697905113904045	0.03234126801151968	-0.2517398378595373	0.0023560179590669853	0	0.0003906705804136378	-0.0008449047539954023	-0.992643982040933	0.18697905113904045	0.03273193859193332	-0.2525847426135327
9	14	5	56	6.995	0	420	101290	286.43	1171.8	-146.7	1907.0	1970.6	-546.0	74.5	0	1.23194272411362	984.38867652	39.9763412793298	456208.297709338	103.61	103.61	0.71	0.72	0	0	0	0	0	101290	1.4456734455218e-05	1.89879319552965	1.89879319552965	10.7842640702183	-1.35760335734299	224.318711597617	-0.417505140463288	-19.8954110077937	-0.487099546713235	0.0504457618727913	-0.0063504876397968	1.04930000185313	-0.0013983863410041	-0.564100840994949	-0.0016314849490888	1.04763325665207	-0.0777163324950356	0.0100494876397968	1.04320750185313	0.0504457618727913	0.0063504876397968	-0.0034628723110004	-0.576110628717427	-0.578319128717427	-0.005280033470347	10	4.977537140067978	5.2564492181529126	10.785769025575224	16.042218243728136	0.06882452582671995	0.008426426629348418	0.0008921625293699181	-0.0006002935134313211	0.008718295645287014	40.32486684141988	1001.6278816264322	1.0252526621138323	0.0676399740197623	-0.5661950807633022	0.010578922766306731	0	0.00787655677024888	-0.0037937665555581716	7.005578922766307	1.0252526621138323	0.07551653079001118	-0.5699888473188603
10	14	6	31	4.005	0	420	101290	286.43	1721.2	-79.8	1243.7	1287.6	239.7	43.2	0	1.23194272411362	984.38867652	39.9763412793298	456208.297709338	82.02	82.02	0.78	0.74	0	0	0	0	0	101290	1.4456734455218e-05	2.39860964385305	2.39860964385305	15.840435328452	-0.689937624871104	161.096638496015	-0.0634841834476939	-14.0995980628282	-0.286719831926474	0.0740971125463421	-0.0032273346521106	0.753564880381553	-0.0002126331065158	-0.399770335069552	-0.0009603357127916	0.756899847800974	0.0212845350203259	0.0032323346521106	0.744878380381553	0.0740971125463421	0.0032273346521106	-0.00025295310244969997	-0.41476032618389796	-0.420654826183898	-0.003931997570726	10	-4.315201063364526	-4.349220581931253	15.84264587780873	11.493425295877476	0.045556517497523055	0.008426426629348418	0.0004074769561148415	0.0005767477507196543	0.009410651336182914	40.35254468880583	1003.0033315621986	0.7310542447452355	0.04471103789495836	-0.40706282393823945	0.007937074052134455	0	0.004433782440348276	-0.0028463584386757596	4.012937074052134	0.7310542447452355	0.049144820335306635	-0.4099091823769152
11	14	7	23	-1.0	0	420	101290	286.43	-909.6	-262.6	653.7	733.1	-1546.8	133.2	0	1.23194272411362	984.38867652	39.9763412793298	456208.297709338	123.03	123.03	0.54	0.5	0	0	0	0	0	101290	1.4456734455218e-05	1.59907309590204	1.59907309590204	-8.37396026915223	-2.53109242537069	47.0757257609248	-1.31615100685147	-11.2080684912761	-0.882304415391811	-0.039171036884793	-0.0118397402861159	0.220207038353463	-0.0044082992334839	-0.317785888383062	-0.0029551790469512	0.220857128611209	-0.0353219282124511	0.0109397402861159	0.203307038353463	-0.039171036884793	0.0118397402861159	-0.006995760506329	-0.300845415365324	-0.306745415365324	-0.006018674178024401	10	17.083180007227295	16.126775942054834	-8.375128864086822	7.751647077968013	0.028454970942717567	0.008426426629348418	0.0006388337643838592	-0.001620035537417308	0.007445224856314968	40.2739741290872	999.1012326214673	0.20031318136486717	0.02803594898308901	-0.29641522860655284	0.0023500027710253715	0	0.0003886782720463575	-0.0008427476138288866	-0.9976499972289746	0.20031318136486717	0.02842462725513537	-0.29725797622038175
12	14	8	7	6.995	0	420	101290	286.43	2215.1	-213.2	1664.1	1787.7	377.7	121.6	0	1.23194272411362	984.38867652	39.9763412793298	456208.297709338	82.02	82.02	0.36	0.33	0	0	0	0	0	101290	1.4456734455218e-05	2.39860964385305	2.39860964385305	20.3828380696984	-1.83347275103239	220.910767774223	0.0210860254689268	-18.0343517987726	-0.796578034600929	0.0953451982314874	-0.0085764711617414	1.03335859672141	7.06252621682517e-05	-0.511333644351516	-0.0026680482110801	1.0372784826568	-0.0312097045974019	0.012275471161741401	1.02726609672141	0.0953451982314874	0.0085764711617414	-0.0025012895675442	-0.5359984714871141	-0.538206971487114	-0.0061917771983266	10	-4.622376350476637	-4.916520527301643	20.38568251611984	15.469161988818197	0.06614430346090133	0.008426426629348418	0.0006987275154513485	0.0006587892302597648	0.00978394337505953	40.36746753874882	1003.7453138057147	1.0074558749882134	0.06486874952007693	-0.5256620566061957	0.010578922766306731	0	0.00787655677024888	-0.0037937665555581716	7.005578922766307	1.0074558749882134	0.07274530629032581	-0.5294558231617539
13	14	8	29	6.995	0	420	101290	286.43	2214.6	-211.8	1664.5	1787.2	376.5	120.7	0	1.23194272411362	984.38867652	39.9763412793298	456208.297709338	82.02	82.02	2.83	2.51	0	0	0	0	0	101290	1.4456734455218e-05	2.39860964385305	2.39860964385305	20.3782411065109	-1.82223790844083	220.875051979465	0.0183831699006	-18.0450441619338	-0.790702893971995	0.0953236949273414	-0.0085239177199523	1.03319152825335	6.15723525339872e-05	-0.511636808284602	-0.0026483700907153	1.03711003898458	-0.0312107017941598	0.012222917719952299	1.0270990282533499	0.0953236949273414	0.0085239177199523	-0.0024979694574913	-0.536295574650097	-0.538504074650097	-0.006171841214426399	10	-4.617778745778141	-4.911609303622172	20.381084911421343	15.469475607799172	0.06614577027781494	0.008426426629348418	0.0007005814129667313	0.0006580713172367038	0.009785079359551852	40.36751295125257	1003.7475721893214	1.0072897619787136	0.06487004209549702	-0.5259522469397991	0.010578922766306731	0	0.00787655677024888	-0.0037937665555581716	7.005578922766307	1.0072897619787136	0.0727465988657459	-0.5297460134953573
14	14	8	50	6.995	0	420	101290	286.43	2215.3	-212.7	1662.7	1786.1	377.0	121.0	0	1.23194272411362	984.38867652	39.9763412793298	456208.297709338	82.02	82.02	4.73	4.5	0	0	0	0	0	101290	1.4456734455218e-05	2.39860964385305	2.39860964385305	20.3847002121964	-1.83288565699547	220.709365550279	0.018439825176817	-18.0453411937556	-0.792676340968257	0.0953539088116821	-0.0085737249005417	1.03241649361975	6.17621129865644e-05	-0.511645230121196	-0.0026549799286713	1.0363444526312	-0.0310863269671575	0.012272724900541699	1.02632399361975	0.0953539088116821	0.0085737249005417	-0.002510909956942	-0.536312512359677	-0.538521012359677	-0.0061799777832352	10	-4.624238752838517	-4.918509984198313	20.38754491848172	15.469034934283407	0.06614370921835899	0.008426426629348418	0.0007080100600817398	0.0006590800838628779	0.009793516773293036	40.3678502481838	1003.7643461922524	1.0065128549271685	0.06486693677114659	-0.5259600684618674	0.010578922766306731	0	0.00787655677024888	-0.0037937665555581716	7.005578922766307	1.0065128549271685	0.07274349354139548	-0.5297538350174256
15	14	9	12	6.995	0	420	101290	286.43	2214.4	-209.9	1664.1	1785.0	377.5	120.1	0	1.23194272411362	984.38867652	39.9763412793298	456208.297709338	82.02	82.02	7.77	7.62	0	0	0	0	0	101290	1.4456734455218e-05	2.39860964385305	2.39860964385305	20.3764060903615	-1.79932802158364	220.739955352138	0.0133108451086089	-18.0301766154363	-0.786757125295455	0.0953151112365948	-0.0084167516964383	1.0325595841311	4.45831731950547e-05	-0.511215264066212	-0.0026351541839221	1.03648175321432	-0.031142261716146	0.0121157516964383	1.0264670841310999	0.0953151112365948	0.0084167516964383	-0.0024864614128509	-0.5358716110929911	-0.538080111092991	-0.0061573221954376	10	-4.615943473550251	-4.909648854129509	20.379249639193453	15.469600785063944	0.06614635574024008	0.008426426629348418	0.0007069375429356538	0.0006577847805543539	0.009791148952838426	40.36775559138522	1003.7596388319366	1.0066579042917059	0.06486983642770107	-0.5255301424973833	0.010578922766306731	0	0.00787655677024888	-0.0037937665555581716	7.005578922766307	1.0066579042917059	0.07274639319794995	-0.5293239090529415
16	14	9	33	6.995	0	420	101290	286.43	2214.7	-210.0	1664.8	1785.2	377.2	120.9	0	1.23194272411362	984.38867652	39.9763412793298	456208.297709338	82.02	82.02	7.43	7.73	0	0	0	0	0	101290	1.4456734455218e-05	2.39860964385305	2.39860964385305	20.3791565586293	-1.79107455274013	220.787787066971	0.0139253338581718	-18.0369678168521	-0.791939795371551	0.0953279771555275	-0.0083781442846397	1.03278332747424	4.66413338997011e-05	-0.511407817134281	-0.0026525129523346	1.0367053980339	-0.0311567396355052	0.012077144284639699	1.02669082747424	0.0953279771555275	0.0083781442846397	-0.0024715039539269	-0.5360677904585021	-0.538276290458502	-0.0061727301986335	10	-4.618694325648784	-4.912587334689081	20.38200049129199	15.469413156602908	0.0661454781894003	0.008426426629348418	0.0007045992508146261	0.0006582142730521075	0.009789240153215152	40.36767928456005	1003.7558440389015	1.0068811363387904	0.06486922105543703	-0.5257245234569156	0.010578922766306731	0	0.00787655677024888	-0.0037937665555581716	7.005578922766307	1.0068811363387904	0.07274577782568592	-0.5295182900124737
18	14	11	17	-0.505	0	420	101290	286.43	264.8	-173.4	554.3	611.6	-597.4	88.1	0	1.23194272411362	984.38867652	39.9763412793298	456208.297709338	103.61	103.61	2.14	2.09	0	0	0	0	0	101290	1.4456734455218e-05	1.89879319552965	1.89879319552965	2.43300244497927	-1.64842907535441	56.8296845403585	-0.778878631821631	-10.2742181481868	-0.589528333877701	0.011380902876283	-0.0077108887595916	0.265833321120701	-0.002608766059337	-0.291308136116784	-0.0019745586097807	0.265722686563238	0.0137234621708995	0.0072563887595916	0.24927982112070102	0.011380902876283	0.0077108887595916	-0.0040983205586831994	-0.288318877374506	-0.294515877374506	-0.0051321816685836	10	6.315265760553808	5.971711718592059	2.4333419730211507	8.40505369161321	0.031411997301143565	0.008426426629348418	0.0009277656624043732	-0.0006755106265822371	0.008678681665170555	40.32328321943132	1001.5492121147564	0.24500866280750755	0.03087378440928728	-0.28337882420689536	0.0029429090117814344	0	0.0006095469806123368	-0.0010553730310335682	-0.5020570909882186	0.24500866280750755	0.031483331389899616	-0.28443419723792895
20	14	12	40	-0.505	0	420	101290	286.43	1321.4	-120.4	354.6	417.6	305.9	52.0	0	1.23194272411362	984.38867652	39.9763412793298	456208.297709338	82.02	82.02	4.38	4.37	0	0	0	0	0	101290	1.4456734455218e-05	2.39860964385305	2.39860964385305	12.153748174306	-1.24356488978965	54.8874349601819	-0.290441931509963	-8.79814729830661	-0.356527687566401	0.0568518243128019	-0.0058170476812538	0.256748022468779	-0.0009728024652048	-0.249456635413464	-0.0011941492455144	0.25623696926109	0.0591125414206971	0.0053625476812537995	0.24019452246877898	0.0568518243128019	0.0058170476812538	-0.0019217781421153	-0.259283490849834	-0.265480490849834	-0.004370986223708601	10	-3.4068365090304216	-3.2023618949181936	12.155444242605382	8.95308234768719	0.033975163916173085	0.008426426629348418	0.001286992277567376	0.00041609835142186416	0.010129517258337658	40.38128231824396	1004.4324459823897	0.2354013642491794	0.03329717869605544	-0.25410940618462313	0.0029429090117814344	0	0.0006095469806123368	-0.0010553730310335682	-0.5020570909882186	0.2354013642491794	0.033906725676667776	-0.2551647792156567
21	14	13	20	-0.995	0	420	101290	286.43	767.6	-155.4	356.4	417.2	-124.3	73.2	0	1.23194272411362	984.38867652	39.9763412793298	456208.297709338	93.74	93.74	2.19	2.12	0	0	0	0	0	101290	1.4456734455218e-05	2.09871946862415	2.09871946862415	7.05617898239799	-1.5539034799887	44.4324401312455	-0.635117389584768	-9.01141874594084	-0.494379693133641	0.033006825719415	-0.0072687245429465	0.207842489732588	-0.0021272540058884	-0.255503587794772	-0.0016558689777585	0.207237981484307	0.0366110654396029	0.0063732245429465005	0.190945989732588	0.033006825719415	0.0072687245429465	-0.0034050903369697997	-0.258903659598261	-0.264806659598261	-0.0047826146237276	10	1.6510356209672699	1.5458876216987472	7.0571636795725	8.603051301271247	0.03243604534134425	0.008426426629348418	0.0011869397763102014	-0.00018607152813595066	0.009427294877522668	40.35321003669453	1003.0364076249789	0.18739605929632547	0.031833017727355147	-0.2540903090662348	0.0023560179590669853	0	0.0003906705804136378	-0.0008449047539954023	-0.992643982040933	0.18739605929632547	0.03222368830776878	-0.2549352138202302
27	14	17	22	4.995	0	420	101290	286.43	1510.4	-117.8	1455.8	1521.6	-14.1	58.0	0	1.23194272411362	984.38867652	39.9763412793298	456208.297709338	89.48	89.48	0.28	0.27	0	0	0	0	0	101290	1.4456734455218e-05	2.19863615320549	2.19863615320549	13.8992998905272	-1.10453917841426	182.16699028537	-0.135437210825326	-15.6050120769356	-0.383788295681904	0.0650170255393102	-0.0051667244061027	0.852126074916564	-0.0004536316498323	-0.44245381173012	-0.0012854555752853	0.854550910698367	-0.0094234912469319	0.0061617244061027004	0.846112574916564	0.0650170255393102	0.0051667244061027	-0.0010902119929072	-0.455973553369025	-0.460779053369025	-0.0044359889594843	10	-1.182624300951911	-1.2110142757712823	13.901239552398549	12.690225276627267	0.051352030914981514	0.008426426629348418	0.0003917778627765218	0.0001521661138527189	0.008970370605977659	40.33494387607643	1002.128550361299	0.8311345261131995	0.05044298731014876	-0.4479018211458297	0.008886912536689018	0	0.005558470773196199	-0.003186985320588726	5.003886912536689	0.8311345261131995	0.05600145808334496	-0.45108880646641847
28	14	18	5	2.005	0	420	101290	286.43	431.6	-181.4	1065.1	1133.9	-690.5	90.4	0	1.23194272411362	984.38867652	39.9763412793298	456208.297709338	103.61	103.61	0.26	0.26	0	0	0	0	0	101290	1.4456734455218e-05	1.89879319552965	1.89879319552965	3.97673914291615	-1.73446367686702	117.85247495226	-0.720147591677829	-13.2815470041133	-0.597524808367844	0.0186020700650086	-0.0081133344890791	0.551280815162798	-0.0024120530697941	-0.376575876306318	-0.0020013418984626	0.55159413395946	-0.0006968204758435	0.0083178344890791	0.538291815162798	0.0186020700650086	0.0081133344890791	-0.0040264233871952	-0.37452242497084104	-0.381818924970841	-0.0051624624716752	10	5.782031781133943	5.657595802602234	3.977294101032635	9.63488990363487	0.03676352337801123	0.008426426629348418	0.000531548871465201	-0.0006426473787546057	0.008315328122059014	40.308757674186836	1000.8277714515897	0.5294501038286646	0.03615966418458149	-0.36837070748884604	0.005835281720596125	0	0.002396498551339185	-0.0020926229563150637	2.010835281720596	0.5294501038286646	0.03855616273592068	-0.3704633304451611
29	14	18	43	6.995	0	420	101290	286.43	64.9	-69.2	2172.1	2165.3	-1519.9	28.7	0	1.23194272411362	984.38867652	39.9763412793298	456208.297709338	123.03	123.03	0.7	0.69	0	0	0	0	0	101290	1.4456734455218e-05	1.59907309590204	1.59907309590204	0.600409954973968	-0.690604557942096	228.578059627886	-0.8214147921198	-21.7913388331947	-0.185619758951046	0.0028085493286754	-0.0032304543779134	1.06922403700929	-0.0027512361268761	-0.617856678477045	-0.0006217124302938	1.06160760324252	-0.127425374260565	0.0069294543779134	1.06313153700929	0.0028085493286754	0.0032304543779134	-0.0040557802525165	-0.616439776441976	-0.618648276441976	-0.0043499828535098	10	15.16281242283057	15.929898917750032	0.6004937428126319	16.530392660562665	0.07110775016850118	0.008426426629348418	0.0009899364188538091	-0.0016035465298881455	0.007812816518314083	40.28866909881871	999.8304599298854	1.046712106327145	0.07000953349990395	-0.6069192328152868	0.010578922766306731	0	0.00787655677024888	-0.0037937665555581716	7.005578922766307	1.046712106327145	0.07788609027015284	-0.610712999370845
30	14	19	4	6.995	0	420	101290	286.43	64.3	-68.6	2172.0	2164.9	-1519.6	28.6	0	1.23194272411362	984.38867652	39.9763412793298	456208.297709338	123.03	123.03	0.64	0.64	0	0	0	0	0	101290	1.4456734455218e-05	1.59907309590204	1.59907309590204	0.594888161581338	-0.68226764609569	228.554731926435	-0.817519686252932	-21.7816556430377	-0.184953513791825	0.0027827199282841	-0.0031914566431565	1.06911491656632	-0.0027381899094452	-0.617582127943308	-0.0006194809173372	1.06149614943188	-0.127437722422013	0.0068904566431565	1.06302241656632	0.002782719928284	0.0031914566431565	-0.0040321930864154	-0.6161579458150691	-0.618366445815069	-0.0043448954407796	10	15.168334986795275	15.935663145809464	0.5949711788479274	16.53063432465739	0.07110888044760756	0.008426426629348418	0.000991207882925778	-0.001604030167026287	0.00781360434524791	40.28870059325709	999.8320231044368	1.0466030348834987	0.07001053686527867	-0.6066408064475668	0.010578922766306731	0	0.00787655677024888	-0.0037937665555581716	7.005578922766307	1.0466030348834987	0.07788709363552755	-0.610434573003125
31	14	19	24	6.995	0	420	101290	286.43	62.4	-67.0	2172.5	2164.3	-1520.7	27.2	0	1.23194272411362	984.38867652	39.9763412793298	456208.297709338	123.03	123.03	0.43	0.43	0	0	0	0	0	101290	1.4456734455218e-05	1.59907309590204	1.59907309590204	0.577412510806783	-0.674003455404189	228.521479159144	-0.82656633519803	-21.7775250392579	-0.175835164617444	0.0027009737366288	-0.0031527990775609	1.06895936944976	-0.0027684906389228	-0.617465011636182	-0.000588940036035	1.06133180481212	-0.127499917206998	0.0068517990775609	1.06286686944976	0.0027009737366288	0.0031527990775609	-0.0040551729826141004	-0.6160177891011771	-0.618226289101177	-0.0043173804363093	10	15.185813076315199	15.953905926319802	0.5774930893280039	16.531399015647807	0.07111245695842633	0.008426426629348418	0.0009932790517551437	-0.0016055604490814472	0.007814145232022115	40.288722215931365	999.8330963109514	1.0464487670942333	0.07001398298143534	-0.6065021635746007	0.010578922766306731	0	0.00787655677024888	-0.0037937665555581716	7.005578922766307	1.0464487670942333	0.07789053975168422	-0.6102959301301589
33	14	20	1	6.995	0	420	101290	286.43	63.5	-68.0	2171.6	2163.9	-1520.1	27.9	0	1.23194272411362	984.38867652	39.9763412793298	456208.297709338	123.03	123.03	0.26	0.26	0	0	0	0	0	101290	1.4456734455218e-05	1.59907309590204	1.59907309590204	0.587539717520798	-0.681322769912416	228.456460339241	-0.826221647377322	-21.7804026162977	-0.180400734098485	0.002748345968522	-0.0031870367774494	1.06865522965081	-0.0027673361459748	-0.61754660048235	-0.0006042318956612	1.06103569791129	-0.127415858602819	0.0068860367774494	1.06256272965081	0.0027483459685219	0.0031870367774494	-0.0040617429687594	-0.61611272995152	-0.61832122995152	-0.0043333585861343	10	15.175684456338887	15.94333419085153	0.5876217093043146	16.530955900155845	0.07111038447768465	0.008426426629348418	0.0009961336737921152	-0.0016046737108847378	0.007817886592255796	40.288871781824916	999.8405197882819	1.0461415580376023	0.07001142269933112	-0.6065911341065946	0.010578922766306731	0	0.00787655677024888	-0.0037937665555581716	7.005578922766307	1.0461415580376023	0.07788797946958001	-0.6103849006621528
39	14	22	57	3.995	0	420	101290	286.43	1169.0	-98.2	1338.1	1380.8	-222.8	50.1	0	1.23194272411362	984.38867652	39.9763412793298	456208.297709338	93.74	93.74	0.78	0.74	0	0	0	0	0	101290	1.4456734455218e-05	2.09871946862415	2.09871946862415	10.7602887152661	-0.900542507992106	161.23313725072	-0.289347625212894	-14.744524655956	-0.330780552274794	0.0503336118884381	-0.004212485211666	0.754203383262318	-0.0009691372097855	-0.418056141450779	-0.00110791212213	0.755877483526499	-0.0023336040174553	0.0042179852116659994	0.745492883262318	0.0503336118884381	0.004212485211666	-0.0012755112188402996	-0.426339319367271	-0.432242819367271	-0.0041507152018261	10	0.7546898328685234	0.7601451697204384	10.761790324837076	11.521935494557514	0.04568886160030783	0.008426426629348418	0.0004204827620008007	-9.258854517813506e-05	0.008754320846171084	40.32630699714509	1001.6994268539728	0.7326097360507455	0.04489929493489567	-0.4189715867747688	0.007927144531094707	0	0.004422695786193123	-0.002842797557698985	4.002927144531095	0.7326097360507455	0.04932199072108879	-0.4218143843324678
40	14	23	29	4.5	0	420	101290	286.43	735.1	-82.5	1535.3	1562.4	-650.2	34.2	0	1.23194272411362	984.38867652	39.9763412793298	456208.297709338	103.61	103.61	0.54	0.5	0	0	0	0	0	101290	1.4456734455218e-05	1.89879319552965	1.89879319552965	6.76917171719442	-0.830022657393585	173.948312253356	-0.447953865223165	-16.2049061733542	-0.233387173079251	0.0316642862506158	-0.0038826131344028	0.813681404773792	-0.0015003709076084	-0.459462797579423	-0.0007817039920453	0.813657447821405	-0.0322740314055878	0.0043826131344028	0.8063314047737921	0.0316642862506158	0.0038826131344028	-0.0017753665712513	-0.463037470648559	-0.468387470648559	-0.0039274322370799995	10	5.326760489313496	5.404436919490282	6.7701163622041625	12.174553281694443	0.048841198564486585	0.008426426629348418	0.0003790214661115916	-0.0006159692337400935	0.008189478861719916	40.303726681205774	1000.5779575867434	0.7932850192864391	0.04805095140263208	-0.4555455569001856	0.008420388516779889	0	0.0049901979698937626	-0.0030196825371963765	4.50842038851678	0.7932850192864391	0.053041149372525846	-0.458565239437382
41	14	24	5	1.507	0	420	101290	286.43	912.6	-148.3	871.0	925.4	-226.4	86.0	0	1.23194272411362	984.38867652	39.9763412793298	456208.297709338	93.74	93.74	0.36	0.33	0	0	0	0	0	101290	1.4456734455218e-05	2.09871946862415	2.09871946862415	8.40107253074764	-1.25503834429761	104.62525571288	-0.458182062404493	-11.8501053019768	-0.571764900047403	0.0392978604383864	-0.0058707172826469	0.489407594362162	-0.0015346290995329	-0.335989759854934	-0.0019150619932599	0.490271815316289	0.0264132989394271	0.0058242172826469	0.47571739436216204	0.0392978604383864	0.0058707172826469	-0.0024392407046994	-0.33986457846770296	-0.347065978467703	-0.0050462219319691	10	1.0496003497561581	1.0183848397696935	8.402244909226757	9.42062974899645	0.03581021432912581	0.008426426629348418	0.0007129476871759169	-0.00012355594350939487	0.00901581837301494	40.3367607115219	1002.2188315667175	0.4672540581797455	0.035173126246529754	-0.33381815633103906	0.00528026936226861	0	0.001962301202879907	-0.0018935868758503708	1.5122802693622686	0.4672540581797455	0.03713542744940966	-0.33571174320688946
42	14	24	53	1.507	0	420	101290	286.43	-334.7	-157.2	1125.1	1149.7	-1301.9	91.1	0	1.23194272411362	984.38867652	39.9763412793298	456208.297709338	115.79	115.79	2.83	2.51	0	0	0	0	0	101290	1.4456734455218e-05	1.69905832100205	1.69905832100205	-3.07420352884078	-1.33931491127358	107.528776795585	-0.993146236146831	-13.7087776099463	-0.602205596678192	-0.0143802616622367	-0.006264939419776	0.502989451425108	-0.0033264312140116	-0.388689279942704	-0.002017019670552	0.502437289488842	-0.0276034472758405	0.0062184394197760005	0.489299251425108	-0.0143802616622367	0.006264939419776	-0.0043388159243459	-0.37743476050813596	-0.384636160508136	-0.0051981014234052	10	12.52647779614906	12.192005479740851	-3.0746325371661443	9.117372942574708	0.03439186199775474	0.008426426629348418	0.00046265696006483507	-0.0012782171706744636	0.007610866418738789	40.280595872716695	999.4297989594664	0.4819354426234427	0.03387427466168769	-0.3717544791600872	0.00528026936226861	0	0.001962301202879907	-0.0018935868758503708	1.5122802693622686	0.4819354426234427	0.035836575864567594	-0.3736480660359376
1	13	14	13	1.507	0	420	101290	286.43	1350.6	-54.1	221.7	251.1	1585.4	29.2	0	1.23194272411362	984.38867652	39.9763412793298	456208.297709338	82.02	82.02	0.0	0.0	0	0	0	0	0	101290	1.4456734455218e-05	2.39860964385305	2.39860964385305	12.435989179542	-0.509402035802516	67.7222546752013	-0.194778750306927	7.32933430513595	-0.18853440075181	0.0581720685546127	-0.0023828398144082	0.316785708379318	-0.0006523894379954	0.207810919002413	-0.0006314746940077	0.318206010191247	0.0498207755005536	0.0023363398144082	0.30309550837931803	0.0581720685546127	0.0023828398144082	-0.0006083347637547	0.198616348807595	0.191414948807595	-0.0037149274601444	-10	-2.9858793758866486	-2.8929210588842538	12.437724634869562	9.54480357598531	0.03639098360874415	0.008426426629348418	0.000976108522724804	0.0003738824705192339	0.009776417622592456	40.36716668669981	1003.7303523663453	0.29725492075562493	0.03568973689738327	0.19478905293339488	0.00528026936226861	0	0.001962301202879907	-0.0018935868758503708	1.5122802693622686	0.29725492075562493	0.03765203810026318	0.1928954660575445
2	13	14	50	3.993	0	420	101290	286.43	1135.5	-122.4	742.2	807.8	1221.3	71.3	0	1.23194272411362	984.38867652	39.9763412793298	456208.297709338	89.48	89.48	0.0	0.0	0	0	0	0	0	101290	1.4456734455218e-05	2.19863615320549	2.19863615320549	10.4546809731635	-1.05854748961859	125.024966837146	-0.108475449460363	4.26044902777297	-0.461149831009785	0.0489040646069354	-0.004951588188554	0.584831720009302	-0.0003633262735192	0.12079785025006	-0.0015445693054817	0.586817493994769	0.0080608315835323	0.004959288188554001	0.576117020009302	0.0489040646069354	0.004951588188554	-0.0008492209129505001	0.112918994478198	0.107014094478198	-0.0045569165664354995	-10	1.0581498531867837	1.0657384715421512	10.456139934853702	11.521878406395853	0.045688594595164105	0.008426426629348418	0.0006158170079772843	-0.0001292083057709073	0.008913035331554795	40.33265182157876	1002.0146606285681	0.565982807568748	0.044884907310018	0.11093268780981086	0.007925157857825577	0	0.004420479262841853	-0.002842085105706306	4.000925157857825	0.565982807568748	0.04930538657285985	0.10809060270410456
3	13	15	28	3.507	0	420	101290	286.43	-763.6	-193.7	951.5	1006.9	-172.7	109.5	0	1.23194272411362	984.38867652	39.9763412793298	456208.297709338	123.03	123.03	0.0	0.0	0	0	0	0	0	101290	1.4456734455218e-05	1.59907309590204	1.59907309590204	-7.01426831413918	-1.72549539776966	115.860611394856	-0.922203864035574	4.70285913701404	-0.708664442667523	-0.0328107793710367	-0.0080713833954478	0.54196343624425	-0.0030888177464295	0.133341643117158	-0.0023735915583743	0.538941467660997	-0.065901501530849	0.0086136833954478	0.53222813624425	-0.0328107793710367	0.0080713833954478	-0.0045564228285749	0.148834558675431	0.142589458675431	-0.0056863544742198	-10	18.022591672626337	18.017322044041	-7.015247162635993	11.002074881405004	0.043257438802735346	0.008426426629348418	0.0006167549922416348	-0.0017753633377640449	0.007267818283826008	40.26688206340018	998.749389137245	0.5245753903256587	0.04263545329369712	0.14669451198514097	0.00743497026376979	0	0.0038905588263575407	-0.002666296195875026	3.51443497026377	0.5245753903256587	0.04652601212005466	0.14402821578926595
4	13	16	3	1.5	0	420	101290	286.43	811.2	-116.2	290.5	336.4	1185.3	66.9	0	1.23194272411362	984.38867652	39.9763412793298	456208.297709338	93.74	93.74	0.0	0.0	0	0	0	0	0	101290	1.4456734455218e-05	2.09871946862415	2.09871946862415	7.47361865580753	-1.03727706828698	67.3388120711723	-0.470345426784413	7.36587019235908	-0.433484466846169	0.0349594914019279	-0.0048520911248284	0.314992071449734	-0.0015753689155521	0.208846832495278	-0.0014519072910156	0.315799264333248	0.0267019804856277	0.0048020911248284	0.301292071449734	0.0349594914019279	0.0048520911248284	-0.0022039302256693	0.206193396073056	0.198993396073056	-0.0045774257900561	-10	1.9732389496095726	1.9149309369093044	7.4746616071260705	9.389592544035375	0.035665751249242414	0.008426426629348418	0.0008877539210236924	-0.00022923126999444682	0.009084949280377664	40.339524312267585	1002.3561667192203	0.29589133414635166	0.03502643355230436	0.2024973268053699	0.005272391036445918	0	0.001956449942634979	-0.001890761585442248	1.5052723910364458	0.29589133414635166	0.036982883494939334	0.20060656521992765
5	13	16	54	-0.5	0	420	101290	286.43	1374.6	-11.1	-206.4	-207.0	1807.6	0.5	0	1.23194272411362	984.38867652	39.9763412793298	456208.297709338	82.02	82.02	0.0	0.0	0	0	0	0	0	101290	1.4456734455218e-05	2.39860964385305	2.39860964385305	12.6455546239127	-0.196179023760226	18.8497604501696	-0.321885267501242	10.1084818169733	-0.0082480544932223	0.0591523569113012	-0.0009176704365367	0.0881738912212269	-0.0010781183698594	0.286608961830598	-2.76259275044642e-05	0.0876543386872302	0.0599195571625747	0.0004676704365367	0.0716238912212269	0.0591523569113012	0.0009176704365367	-0.0006369566849916	0.276136694452648	0.269936694452648	-0.003215957875622427	-10	-3.8980350862436577	-3.66304385405941	12.647319324317708	8.984275470258298	0.034120056233128845	0.008426426629348418	0.001249730434201799	0.00047982072489273546	0.010155977788442952	40.38234011342589	1004.485069260152	0.07019093627584393	0.033437427818470505	0.27061212108514626	0.0029488693704001995	0	0.0006120185471574737	-0.0010575105085146425	-0.4970511306295998	0.07019093627584393	0.034049446365627976	0.2695546105766316
7	13	18	19	6.994	0	420	101290	286.43	801.4	-188.2	1375.1	1457.3	666.5	109.5	0	1.23194272411362	984.38867652	39.9763412793298	456208.297709338	103.61	103.61	0.0	0.0	0	0	0	0	0	101290	1.4456734455218e-05	1.89879319552965	1.89879319552965	7.38080653695596	-1.62674250273028	189.98489062869	-0.424377293946911	-0.625906319872294	-0.706703711690457	0.0345253423477125	-0.0076094450568678	0.888696019466928	-0.0014214038433853	-0.0177465185959568	-0.0023670243112893	0.886287143160088	-0.0739439933308971	0.0113082450568678	0.882605019466928	0.0345253423477125	0.0076094450568678	-0.0037477908113248	-0.0252673888185595	-0.0274775888185595	-0.006044717980626901	-10	8.379733917100943	8.832070054351068	7.381836536246034	16.2139065905971	0.06962632368824918	0.008426426629348418	0.0008171215332945196	-0.0009633727196636476	0.008280175442979291	40.307352398691066	1000.7579893839859	0.8681683246293762	0.06848745186497884	-0.024854092300105945	0.010578161390626192	0	0.007875423043668586	-0.003793493514374598	7.004578161390626	0.8681683246293762	0.07636287490864743	-0.028647585814480542
8	13	19	16	6.995	0	420	101290	286.43	-340.3	-159.9	1588.6	1634.3	-229.5	83.0	0	1.23194272411362	984.38867652	39.9763412793298	456208.297709338	123.03	123.03	0.0	0.0	0	0	0	0	0	101290	1.4456734455218e-05	1.59907309590204	1.59907309590204	-3.12296116643997	-1.50622532733433	191.909260353277	-0.858114453927688	-1.17829483656238	-0.531751660831537	-0.0146083362123213	-0.007045699520592	0.897697681170466	-0.0028741575015319	-0.0334085638132568	-0.0017810421651047	0.889236879480682	-0.123823674784689	0.010744699520592	0.8916051811704659	-0.0146083362123213	0.007045699520592	-0.0051039345530872	-0.0270826608897516	-0.0292911608897516	-0.0056283305344808	-10	18.88670314458798	19.812170812863123	-3.123396978944777	16.688773833918347	0.07184850949102041	0.008426426629348418	0.0010044486291491293	-0.0019180582731010253	0.0075128169853965225	40.276676215107166	999.2353017365774	0.8783577228961323	0.0707809852643152	-0.026680267063793877	0.010578922766306731	0	0.00787655677024888	-0.0037937665555581716	7.005578922766307	0.8783577228961323	0.07865754203456408	-0.03047403361935205
9	13	19	59	6.995	0	420	101290	286.43	-338.6	-159.9	1589.3	1635.5	-227.2	82.6	0	1.23194272411362	984.38867652	39.9763412793298	456208.297709338	123.03	123.03	0.0	0.0	0	0	0	0	0	101290	1.4456734455218e-05	1.59907309590204	1.59907309590204	-3.10733607510593	-1.51114478302251	192.082526181642	-0.855228010639681	-1.16495087293121	-0.529166588042348	-0.0145352464185676	-0.0070687113541834	0.898508170107075	-0.0028644896855535	-0.0330302182187072	-0.0017723837555941	0.890050236846629	-0.123849832566995	0.0107677113541834	0.8924156701070749	-0.0145352464185676	0.0070687113541834	-0.0051018308187263	-0.026724915870524602	-0.0289334158705246	-0.0056194803728841	-10	18.871075872756062	19.795897094545687	-3.1077697071128583	16.68812738743283	0.07184548601764595	0.008426426629348418	0.0009945010632704167	-0.0019167842735770678	0.007504143419041767	40.27632947765845	999.2180971983495	0.8791713069104165	0.0707792253694617	-0.02632829072817709	0.010578922766306731	0	0.00787655677024888	-0.0037937665555581716	7.005578922766307	0.8791713069104165	0.07865578213971058	-0.03012205728373526
10	13	20	20	6.995	0	420	101290	286.43	-338.5	-159.9	1589.0	1634.6	-226.9	82.8	0	1.23194272411362	984.38867652	39.9763412793298	456208.297709338	123.03	123.03	0.0	0.0	0	0	0	0	0	101290	1.4456734455218e-05	1.59907309590204	1.59907309590204	-3.10641109605041	-1.50868158723743	192.016211480596	-0.862357620455941	-1.16205047417987	-0.530462185343373	-0.0145309196260421	-0.0070571892153326	0.898197968539695	-0.0028883695088598	-0.032947982301379	-0.00177672321251	0.889742871105431	-0.123807760786946	0.0107561892153326	0.892105468539695	-0.0145309196260421	0.0070571892153326	-0.0051217810516043	-0.026643899472513	-0.028852399472513	-0.0056262171240435005	-10	18.870150764618746	19.794933713293087	-3.106844598975542	16.688089114317545	0.07184530701173036	0.008426426629348418	0.0009981333085925896	-0.001916708843515876	0.007507851094425131	40.27647769695493	999.2254515763591	0.8788592405314006	0.07077852808080294	-0.02624828350569161	0.010578922766306731	0	0.00787655677024888	-0.0037937665555581716	7.005578922766307	0.8788592405314006	0.07865508485105183	-0.030042050061249784
11	13	21	6	1.005	0	420	101290	286.43	-859.6	-253.1	402.6	489.5	3.5	143.2	0	1.23194272411362	984.38867652	39.9763412793298	456208.297709338	123.03	123.03	0.0	0.0	0	0	0	0	0	101290	1.4456734455218e-05	1.59907309590204	1.59907309590204	-7.89916147739412	-2.29430780561061	54.5760455087915	-1.0860136797153	8.28071437314289	-0.928936175376409	-0.0369500613383333	-0.0107321282630996	0.255291429973245	-0.0036374802335902	0.234785697068486	-0.0031113668633385	0.254604066572718	-0.041422102014817	0.010434628263099599	0.240898429973245	-0.0369500613383333	0.0107321282630996	-0.0058077652430513	0.252301181535912	0.245200181535912	-0.0063262686496459	-10	17.0957405930457	16.549567399616148	-7.900263813659552	8.649303585956595	0.0322528703649728	0.008426426629348418	0.0006543433327985107	-0.0016552412763046701	0.007425528685842259	40.27318674825448	999.0621669227103	0.23736029098923336	0.031779163923642904	0.24859556732247132	0.004710237714755443	0	0.0015614898500773973	-0.001689164644237826	1.0097102377147553	0.23736029098923336	0.0333406537737203	0.2469064026782335
15	13	23	19	-0.005	0	420	101290	286.43	-59.4	-214.2	56.2	143.3	706.1	112.9	0	1.23194272411362	984.38867652	39.9763412793298	456208.297709338	109.36	109.36	0.0	0.0	0	0	0	0	0	101290	1.4456734455218e-05	1.79895723288979	1.79895723288979	-0.535019061410733	-2.04742521105903	29.4227048976871	-0.833774592130011	9.70851901724772	-0.735415092011472	-0.0025026690735313	-0.0095772807469228	0.137631159183223	-0.0027926338818657	0.27526869087045	-0.0024631898388028	0.13763137705824	-0.0024906584796116	0.009572780746922801	0.121427659183223	-0.0025026690735313	0.0095772807469228	-0.0048912338216704	0.282471075577521	0.275974075577521	-0.0056627105416069	-10	9.377769262343229	8.94326139651434	-0.5350937238816516	8.408167672632688	0.03132656159828478	0.008426426629348418	0.0008181760634271558	-0.000974173096081439	0.008270429596694134	40.30696279541392	1000.7386432009819	0.11944378637558864	0.030814751405042525	0.27785609172992903	0.003535751605448818	0	0.000879866958565014	-0.0012679756234004354	-0.0014642483945511821	0.11944378637558864	0.03169461836360754	0.2765881161065286
16	13	23	49	4.0	0	420	101290	286.43	90.2	-167.2	912.2	971.7	433.5	99.7	0	1.23194272411362	984.38867652	39.9763412793298	456208.297709338	109.36	109.36	0.0	0.0	0	0	0	0	0	101290	1.4456734455218e-05	1.79895723288979	1.79895723288979	0.837852511667998	-1.42704542023573	126.138709868059	-0.568803715845785	4.17291187669396	-0.644233910599604	0.0039192389960892	-0.0066753181285379	0.590041497455321	-0.0019051438410279	0.118315881894511	-0.0021577887639766	0.588877578315029	-0.0372495222983114	0.0066753181285379	0.5813414974553209	0.0039192389960892	0.0066753181285379	-0.0028268583623780002	0.123111232749949	0.117211232749949	-0.0053055293491265	-10	10.683990382790912	10.754323777587098	0.8379694348643684	11.592293212451466	0.04601792934451553	0.008426426629348418	0.0006192721457436771	-0.0011463234666573955	0.007899375308434698	40.29212940255329	1000.0022137120543	0.5722647204568884	0.04529942828374807	0.12118903519383992	0.007932110092977602	0	0.004428238273217473	-0.0028445782855686386	4.007932110092978	0.5722647204568884	0.04972766655696554	0.11834445690827128
18	13	25	25	2.493	0	420	101290	286.43	854.1	-151.7	475.0	554.6	1133.6	77.1	0	1.23194272411362	984.38867652	39.9763412793298	456208.297709338	93.74	93.74	0.0	0.0	0	0	0	0	0	101290	1.4456734455218e-05	2.09871946862415	2.09871946862415	7.86906288710019	-1.48059719848632	90.7346992798111	-0.39262064163106	6.14189974498767	-0.498659966441386	0.0368092685768813	-0.0069258183236281	0.424431468263928	-0.001315038521068	0.174143213733911	-0.0016702052700559	0.425630867143779	0.0183127944419694	0.0075695183236281	0.412516068263928	0.0368092685768813	0.0069258183236281	-0.0026406593334931	0.17072331212421699	0.163768412124217	-0.0048567401039387	-10	2.241829499277876	2.2075238130139034	7.870161023075806	10.077684836089709	0.03888330484146829	0.008426426629348418	0.000787358094223849	-0.0002631216391350449	0.008950663084437222	40.33415604146956	1002.0894029736421	0.4052294588452434	0.038196477158658725	0.1677076863345388	0.0063679721556657186	0	0.002854012205391714	-0.002283654047256498	2.4993679721556656	0.4052294588452434	0.04105048936405044	0.1654240322872823
22	13	27	28	6.995	0	420	101290	286.43	1317.2	-196.5	1272.7	1377.5	1071.5	110.9	0	1.23194272411362	984.38867652	39.9763412793298	456208.297709338	93.74	93.74	0.0	0.0	0	0	0	0	0	101290	1.4456734455218e-05	2.09871946862415	2.09871946862415	12.1263096376904	-1.73982246404149	188.766107828887	-0.191428191489718	-0.373749519240837	-0.717148139591943	0.056723474536198	-0.0081384013921121	0.882994895450195	-0.0006411671194402	-0.0105970375803056	-0.0024020067436033	0.883330512216701	-0.0512322568460525	0.0118374013921121	0.8769023954501951	0.056723474536198	0.0081384013921121	-0.0031176309378911	-0.0243762172511583	-0.0265847172511583	-0.0060027756680443994	-10	3.635304288730003	3.8422009134859936	12.128001876913201	15.970202790399195	0.06848770474319975	0.008426426629348418	0.0007333680543597564	-0.0004473756952447148	0.00871241898846346	40.32463191418113	1001.6162109623741	0.861819905715226	0.06730973429960142	-0.023956952748774067	0.010578922766306731	0	0.00787655677024888	-0.0037937665555581716	7.005578922766307	0.861819905715226	0.07518629106985031	-0.02775071930433224
23	13	28	29	6.995	0	420	101290	286.43	1869.2	-195.4	1169.0	1292.3	1503.1	110.7	0	1.23194272411362	984.38867652	39.9763412793298	456208.297709338	82.02	82.02	0.0	0.0	0	0	0	0	0	101290	1.4456734455218e-05	2.39860964385305	2.39860964385305	17.2047829791758	-1.72259556205602	187.79023157293	0.111365883130912	-0.127527781030224	-0.717003020927984	0.0804791480985117	-0.0080578187775075	0.878430020099887	0.0003730074548335	-0.0036158352547322	-0.0024015206850191	0.881692644931291	-0.0270974789494478	0.011756818777507502	0.872337520099888	0.0804791480985117	0.0080578187775075	-0.002088520883189	-0.0240906220333134	-0.0262991220333134	-0.0058769653985066995	-10	-1.443877759034395	-1.5315671139674185	17.207183924677597	15.675616810710178	0.06710990644738815	0.008426426629348418	0.0006045711522303546	0.000193456389583923	0.009224454171162695	40.34510120739174	1002.633335164921	0.8564638205936158	0.06588872489289317	-0.02365225123501023	0.010578922766306731	0	0.00787655677024888	-0.0037937665555581716	7.005578922766307	0.8564638205936158	0.07376528166314206	-0.027446017790568402
24	13	29	11	6.995	0	420	101290	286.43	1869.6	-191.3	1171.8	1291.0	1503.0	111.0	0	1.23194272411362	984.38867652	39.9763412793298	456208.297709338	82.02	82.02	0.0	0.0	0	0	0	0	0	101290	1.4456734455218e-05	2.39860964385305	2.39860964385305	17.2084274062843	-1.65353630846273	187.879608511584	0.117715285040324	-0.132700134919681	-0.718812094560206	0.0804961957061075	-0.0077347789632748	0.878848100344853	0.0003942740598238	-0.0037624886301173	-0.0024075799729463	0.882109689418397	-0.0271314731832108	0.011433778963274799	0.8727556003448529	0.0804961957061075	0.0077347789632748	-0.0019763026259293	-0.0242420803275019	-0.0264505803275019	-0.0058693133404563	-10	-1.447522694726528	-1.535437857220053	17.21082886036973	15.675391003149677	0.06710885033035105	0.008426426629348418	0.0005996136507453997	0.00019395766554578312	0.0092199979456396	40.344923063799406	1002.6244809395284	0.8568818602392622	0.06588826985111028	-0.023801163669292465	0.010578922766306731	0	0.00787655677024888	-0.0037937665555581716	7.005578922766307	0.8568818602392622	0.07376482662135916	-0.027594930224850638
25	13	29	30	6.995	0	420	101290	286.43	1869.8	-195.4	1169.3	1292.4	1504.4	110.7	0	1.23194272411362	984.38867652	39.9763412793298	456208.297709338	82.02	82.02	0.0	0.0	0	0	0	0	0	101290	1.4456734455218e-05	2.39860964385305	2.39860964385305	17.2102967285894	-1.72259323792146	187.846769567648	0.10811495687127	-0.116511824421558	-0.717005435297523	0.0805049398714256	-0.0080578079058581	0.87869448897785	0.0003621188442836	-0.0033034963749334	-0.0024015287716773	0.881958286302435	-0.0271040868914489	0.011756807905858101	0.87260198897785	0.0805049398714256	0.0080578079058581	-0.0020993244212331	-0.0237855526412683	-0.0259940526412683	-0.0058782891092979	-10	-1.4493922778974682	-1.537423272002263	17.212698443540667	15.675275171538404	0.06710830857817132	0.008426426629348418	0.0006013129033590756	0.000194214809386677	0.00922195434209417	40.34500127337176	1002.628368165079	0.8567277211901086	0.06588748250327303	-0.023352848800483796	0.010578922766306731	0	0.00787655677024888	-0.0037937665555581716	7.005578922766307	0.8567277211901086	0.07376403927352192	-0.02714661535604197
26	13	30	1	4.005	0	420	101290	286.43	1526.3	-108.9	696.9	760.1	1520.4	67.6	0	1.23194272411362	984.38867652	39.9763412793298	456208.297709338	82.02	82.02	0.0	0.0	0	0	0	0	0	101290	1.4456734455218e-05	2.39860964385305	2.39860964385305	14.0498312790794	-0.88746579063621	126.674974991371	0.0234458921689253	4.35221625357903	-0.437583982802229	0.0657211691444596	-0.0041513159964541	0.59254999525685	7.85293693038108e-05	0.123399755243764	-0.0014656381569669	0.595693162185394	0.0241748935504005	0.0041563159964541	0.58386349525685	0.0657211691444596	0.0041513159964541	-0.00018700046368099995	0.11077054863963	0.10487604863963	-0.0044314596807153	-10	-2.524347133319667	-2.543772535196828	14.05179194776387	11.508019412567043	0.04562477515569466	0.008426426629348418	0.000548064700395801	0.0003267989997962874	0.009301290329540506	40.34817283588164	1002.7860096785761	0.5731518068829626	0.04478773297448844	0.10873832773924595	0.007937074052134455	0	0.004433782440348276	-0.0028463584386757596	4.012937074052134	0.5731518068829626	0.049221515414836714	0.1058919693005702
27	13	30	42	-0.498	0	420	101290	286.43	308.6	-196.0	-102.6	-18.5	1031.7	98.7	0	1.23194272411362	984.38867652	39.9763412793298	456208.297709338	103.61	103.61	0.0	0.0	0	0	0	0	0	101290	1.4456734455218e-05	1.89879319552965	1.89879319552965	2.83877725772543	-1.93880805887817	17.7075887861197	-0.760831380824536	10.3702106578723	-0.647693243596585	0.0132790036131055	-0.0090692001807813	0.0828311326048439	-0.0025483188292525	0.294029841912237	-0.0021693754093688	0.082712587640824	0.0139984396029383	0.0086210001807813	0.0662825326048439	0.0132790036131055	0.0090692001807813	-0.0044235624173802005	0.29648831532769204	0.290287115327692	-0.0053247648323233	-10	5.910382922120224	5.588235238810545	2.8391734120678427	8.427408650878387	0.03151515293821432	0.008426426629348418	0.0009113860118484338	-0.0006353552909478676	0.008702457350248985	40.32423368433217	1001.5964279422238	0.06514377720109021	0.03097371239123841	0.2913945499273554	0.0029512533433790423	0	0.0006130085031469199	-0.001058365438374353	-0.49504874665662096	0.06514377720109021	0.03158672089438533	0.2903361844889811
28	13	31	18	4.493	0	420	101290	286.43	155.4	-165.7	1008.2	1064.4	438.5	102.4	0	1.23194272411362	984.38867652	39.9763412793298	456208.297709338	109.36	109.36	0.0	0.0	0	0	0	0	0	101290	1.4456734455218e-05	1.79895723288979	1.79895723288979	1.43939300143704	-1.38012693211077	137.657337871014	-0.633043266396443	3.47237099252093	-0.66240326716154	0.0067330766493726	-0.0064558466037336	0.643922407784935	-0.0021203069643911	0.0984532260409304	-0.0022186449728674	0.64247102852	-0.0437307566955783	0.0069488466037336	0.636553507784935	0.0067330766493726	0.0064558466037336	-0.0030032961587878	0.1019131884014497	0.0965554884014497	-0.0054552047998194	-10	10.648865794149799	10.795064245207385	1.4395938702394	12.234658115446784	0.049120912885003254	0.008426426629348418	0.000584023264123651	-0.0011501172400509583	0.00786033265342111	40.29056862005202	999.9247417218802	0.6266632266579749	0.04835770974229159	0.10032973929385994	0.008413668283760263	0	0.0049822358880958414	-0.003017272556914016	4.50141366828376	0.6266632266579749	0.05333994563038743	0.09731246673694592
33	13	35	16	2.005	0	420	101290	286.43	328.9	-167.1	457.9	522.4	787.9	97.5	0	1.23194272411362	984.38867652	39.9763412793298	456208.297709338	103.61	103.61	0.0	0.0	0	0	0	0	0	101290	1.4456734455218e-05	1.89879319552965	1.89879319552965	3.03634950207104	-1.47992754396494	79.225455576652	-0.626892829308194	6.82706861660584	-0.630845442714066	0.0142031911446827	-0.0069226858676439	0.370594455056059	-0.0020997067696106	0.193570022084438	-0.0021129456020521	0.370864491778713	0.0012286149546185	0.0071271858676439	0.357605455056059	0.0142031911446827	0.0069226858676439	-0.0033749812722102994	0.19686331050084202	0.189566810500842	-0.0052512060327087	-10	6.722552654339294	6.57917028504577	3.036773227827284	9.615943512873054	0.03667490984341272	0.008426426629348418	0.0007756683955021046	-0.0007383311272444762	0.008463763897606048	40.31469159340817	1001.1224601805684	0.35162807210965313	0.03606188792901093	0.19357273599107602	0.005835281720596125	0	0.002396498551339185	-0.0020926229563150637	2.010835281720596	0.35162807210965313	0.03845838648035012	0.19148011303476095
34	13	35	52	4.495	0	420	101290	286.43	758.9	-143.8	903.3	964.7	897.7	89.8	0	1.23194272411362	984.38867652	39.9763412793298	456208.297709338	98.43	98.43	0.0	0.0	0	0	0	0	0	101290	1.4456734455218e-05	1.9987195264536	1.9987195264536	6.99168076249954	-1.18381108176429	136.395994820636	-0.357767306346295	3.57909852162668	-0.581418481366213	0.0327051211412415	-0.0055375361308121	0.638022198855987	-0.0011983012086925	0.101479305215785	-0.0019473955742141	0.638622924323514	-0.0173986123117655	0.0060325361308121	0.630658698855987	0.0327051211412415	0.0055375361308121	-0.0018474643091965	0.0976167697432065	0.0922612697432065	-0.005094513643086799	-10	5.098207048749488	5.172338327261957	6.99265645887983	12.164994786141786	0.04879549284258877	0.008426426629348418	0.0005904807495463252	-0.0005913572282813464	0.008425550150613397	40.31316394761683	1001.0465904925511	0.6201642239220931	0.04798351153248798	0.09599237806343407	0.008415588692787818	0	0.004984510525599526	-0.0030179612455170693	4.503415588692788	0.6201642239220931	0.052968022058087504	0.092974416817917
35	13	36	27	0.005	0	420	101290	286.43	1003.2	-98.6	-64.9	-17.4	1479.5	44.5	0	1.23194272411362	984.38867652	39.9763412793298	456208.297709338	89.48	89.48	0.0	0.0	0	0	0	0	0	101290	1.4456734455218e-05	2.19863615320549	2.19863615320549	9.24061443621795	-1.04278663673664	31.1504400612697	-0.441543192555574	9.44677670185294	-0.291154487413537	0.0432250019447356	-0.0048778633403661	0.145713019574794	-0.0014788990831296	0.267847428742197	-0.0009751890907722	0.145716791112971	0.0432122859203901	0.004876363340366101	0.12952201957479398	0.0432250019447356	0.0048778633403661	-0.0022526542324512	0.262167333638892	0.255664333638892	-0.004174938115369	-10	-0.3968027214730405	-0.3766754127034808	9.241903973650127	8.865228560946646	0.03346226588979891	0.008426426629348418	0.0010861508955524073	4.669985444870757e-05	0.009559277379349532	40.35848621423046	1003.2987185605386	0.12708080561725116	0.032831573511704744	0.25722603828083535	0.0035475388651699997	0	0.0008857432241918603	-0.0012722027184175503	0.00854753886517	0.12708080561725116	0.033717316735896605	0.2559538355624178
1	14	36	33	3.495	0	420	101290	286.43	-754.5	-195.8	910.7	966.6	-107.2	109.4	0	1.23194272411362	984.38867652	39.9763412793298	456208.297709338	123.03	123.03	0.0	0.0	0	0	0	0	0	101290	1.4456734455218e-05	1.59907309590204	1.59907309590204	-6.93028100551407	-1.75988630411129	112.494020683682	-0.953292835791408	5.46211117385922	-0.708182254201043	-0.0324179103033235	-0.0082322544071927	0.526215469370177	-0.0031929467480772	0.154868954734079	-0.0023719765225341	0.523260530502474	-0.0644364674014633	0.0087877544071927	0.5164549693701771	-0.0324179103033235	0.0082322544071927	-0.0047098790561207	0.17025953897946	0.16400603897946	-0.0056952194156481995	-10	17.926713335169	17.918658380684192	-6.9312481334939005	10.987410247190292	0.04318885132939034	0.008426426629348418	0.0007169587039563779	-0.0017673880847631385	0.007375997248541657	40.2712066626129	998.9639288551346	0.5089197007975357	0.04255871005200518	0.16777538948075554	0.007422684150013082	0	0.0038777113360354554	-0.00266189020402712	3.5024226841500132	0.5089197007975357	0.04643642138804063	0.16511349927672841
2	14	37	0	5.0	0	420	101290	286.43	-626.7	-162.3	1211.6	1244.8	-152.7	97.3	0	1.23194272411362	984.38867652	39.9763412793298	456208.297709338	123.03	123.03	0.0	0.0	0	0	0	0	0	101290	1.4456734455218e-05	1.59907309590204	1.59907309590204	-5.75541913676772	-1.37190714473471	146.849710439478	-0.911094432552313	3.25507027316177	-0.628843387272041	-0.026922236080372	-0.0064173967443906	0.68692174780623	-0.0030516079596823	0.0922920304520937	-0.0021062399433362	0.681961375686469	-0.0866889639836124	0.0074173967443906	0.68092174780623	-0.026922236080372	0.0064173967443906	-0.0039583041979372	0.1046801426048743	0.0998801426048743	-0.0055042230267764	-10	18.481384590816095	18.846731231960995	-5.7562223115420785	13.090508920418916	0.053225184242983066	0.008426426629348418	0.0007387392859555306	-0.001841858579500868	0.007323307335803081	40.269100312679285	998.8594317341744	0.6710570445061824	0.05245409615196675	0.10316361217897634	0.008891535581806234	0	0.0055642554019910825	-0.0031886432166087623	5.008891535581807	0.6710570445061824	0.058018351553957834	0.09997496896236757
4	14	38	14	3.995	0	420	101290	286.43	-724.5	-189.8	1009.9	1060.7	-130.2	107.2	0	1.23194272411362	984.38867652	39.9763412793298	456208.297709338	123.03	123.03	0.0	0.0	0	0	0	0	0	101290	1.4456734455218e-05	1.59907309590204	1.59907309590204	-6.65714658976502	-1.69781722272202	123.730227154944	-0.976579162200753	4.75524453686155	-0.691806100566577	-0.0311402641323445	-0.0079419126574879	0.578775291005863	-0.0032709416698807	0.134826942822616	-0.0023171264444364	0.575199420396719	-0.0713875360580012	0.0079474126574879	0.570064791005863	-0.0311402641323445	0.0079419126574879	-0.004536073383656801	0.149507418702257	0.143603918702257	-0.005584152768766	-10	18.17455575925638	18.28550308283418	-6.658075601550781	11.627427481283398	0.04618225466567415	0.008426426629348418	0.0007266722581073411	-0.0017969705195520797	0.007356128367903679	40.270412377459685	998.9245233116626	0.5617694951451596	0.04551023374452559	0.1473318620092766	0.007927144531094707	0	0.004422695786193123	-0.002842797557698985	4.002927144531095	0.5617694951451596	0.04993292953071871	0.1444890644515776
5	14	38	47	7.0	0	420	101290	286.43	-341.5	-139.5	1569.7	1586.0	-173.4	88.4	0	1.23194272411362	984.38867652	39.9763412793298	456208.297709338	123.03	123.03	0.0	0.0	0	0	0	0	0	101290	1.4456734455218e-05	1.59907309590204	1.59907309590204	-3.13396830108963	-1.11425471905468	189.162940841627	-0.923758962495056	-0.441214991233014	-0.566167905630453	-0.01465982450024	-0.0052121709795936	0.884851168955143	-0.0030940263731838	-0.0125099073106167	-0.0018963154922356	0.876469039335473	-0.122386783363291	0.008912170979593601	0.878751168955143	-0.01465982450024	0.0052121709795936	-0.004797976913623599	-0.0061779922603285	-0.0083779922603285	-0.00570597226855	-10	18.906393578877598	19.83427008771368	-3.1344056496516206	16.699864438062058	0.07190638098709384	0.008426426629348418	0.0011623599102108069	-0.0019197877649188783	0.007668998774640347	40.28291979161558	999.5451230129765	0.8654263627345276	0.07081603980004537	-0.006084313238769734	0.01058272828608418	0	0.007882224603264133	-0.0037951312742518536	7.010582728286084	0.8654263627345276	0.07869826440330951	-0.009879444513021588
