run	hr	min	sec	AoA	AoS	dPb	pBar	temp	B1	B2	B3	B4	B5	B6	rpmWT	rho	q	V	Re	rpsM1	rpsM2	iM1	iM2	dPtQ	tM1	tM2	vM1	vM2	pInf	nu	J_M1	J_M2	FX	FY	FZ	MX	MY	MZ	CFX	CFY	CFZ	CMX	CMY	CMZ	CN	CT	CY	CL	CD	CYaw	CMroll	CMpitch	CMpitch25c	CMyaw	delta_e	T_0	thrust	F_meas	Drag_Force	CD_thrust_cor	epsilon_sb	epsilon_wb	epsilon_ss	epsilon_total	V_cor	q_cor	CL_cor1	CD_cor1	CMpitch_cor1	delta_alpha_total	delta_CL	delta_CDw	delta_CMpitch_total	AoA_cor	CL_cor2	CD_cor2	CMpitch_cor2
1	14	0	8	7.0	0	420	101290	286.43	1442.5	-155.8	1849.1	1925.0	-306.4	77.8	0	1.23194272411362	984.38867652	39.9763412793298	456208.297709338	98.43	98.43	0.64	0.64	0	0	0	0	0	101290	1.4456734455218e-05	1.9987195264536	1.9987195264536	13.2747399213173	-1.46092587405618	223.861184144109	-0.335150955395857	-19.4133622311448	-0.509370623752683	0.0620955092191517	-0.0068338013865925	1.04715981678166	-0.0011225502940634	-0.550433160533274	-0.0017060794077268	1.04692198523701	-0.0659840206017581	0.0105338013865925	1.04105981678166	0.0620955092191517	0.0068338013865925	-0.0033180343427176	-0.565734964125379	-0.567934964125379	-0.0053367945455739	10	2.495395504035825	2.6396266384956792	13.27659242519015	15.91621906368583	0.06824121924899615	0.008426426629348418	0.0008150843651824661	-0.00031265240906134964	0.008928858585469535	40.3332843773774	1002.0460910020053	1.0227149274092635	0.06703871618665497	-0.5557659448973961	0.01058272828608418	0	0.007882224603264133	-0.0037951312742518536	7.010582728286084	1.0227149274092635	0.0749209407899191	-0.559561076171648
2	14	0	53	1.507	0	420	101290	286.43	400.3	-95.8	1000.4	1016.6	-686.8	45.0	0	1.23194272411362	984.38867652	39.9763412793298	456208.297709338	103.61	103.61	0.43	0.43	0	0	0	0	0	101290	1.4456734455218e-05	1.89879319552965	1.89879319552965	3.6877839747272	-0.925059835613591	106.837201882518	-0.712960279523638	-12.8550205999754	-0.303445197757347	0.0172504188525141	-0.0043271703921194	0.499754457998148	-0.0023879799790201	-0.364482439121909	-0.001016355437723	0.500035272758345	0.0041013701487263	0.004280670392119401	0.486064257998148	0.0172504188525141	0.0043271703921194	-0.0028810287853046996	-0.362143120880071	-0.369344520880071	-0.0041594448413603	10	5.76354665013587	5.600121996906738	3.6882986088470453	9.288420605753783	0.03519186333888943	0.008426426629348418	0.0005826211580712139	-0.0006366059003041574	0.008372441887115474	40.31104087355048	1000.9411539609814	0.47802625533081505	0.03460989853334825	-0.3561543913578082	0.00528026936226861	0	0.001962301202879907	-0.0018935868758503708	1.5122802693622686	0.47802625533081505	0.036572199736228155	-0.3580479782336586
3	14	1	39	-0.002	0	420	101290	286.43	-870.8	-167.6	901.8	921.1	-1620.5	89.9	0	1.23194272411362	984.38867652	39.9763412793298	456208.297709338	123.03	123.03	0.28	0.27	0	0	0	0	0	101290	1.4456734455218e-05	1.59907309590204	1.59907309590204	-8.00479211014517	-1.52996076947796	71.9465001350256	-1.2669138813634	-12.5357634694238	-0.596328699718011	-0.0374441718044287	-0.0071567272601324	0.336545543558707	-0.0042433850394301	-0.355430441363871	-0.0019973356675538	0.336546850401838	-0.0374324241259828	0.0071549272601324	0.32034414355870705	-0.0374441718044287	0.0071567272601324	-0.0056601995774328	-0.33837789039490296	-0.344876690394903	-0.005197117130185501	10	16.849310198379662	16.114327009274174	-8.005909187276139	8.108417821998035	0.029924011533281045	0.008426426629348418	0.0005384899288374588	-0.0016189947056471994	0.007345921852538677	40.270004358318175	998.9042812412406	0.31568905392701135	0.029489169946105936	-0.33346074288075245	0.0035392880854712154	0	0.0008816279352427968	-0.0012692438602455046	0.0015392880854712154	0.31568905392701135	0.03037079788134873	-0.33472998674099796
4	14	2	25	1.495	0	420	101290	286.43	1447.9	-70.1	778.5	812.0	225.7	35.0	0	1.23194272411362	984.38867652	39.9763412793298	456208.297709338	82.02	82.02	0.26	0.26	0	0	0	0	0	101290	1.4456734455218e-05	2.39860964385305	2.39860964385305	13.3258416127889	-0.633996483855698	103.10835762711	-0.157867890599475	-11.174994012601	-0.240248823943497	0.062334548595644	-0.0029656576883251	0.482311970671776	-0.0005287606798145	-0.316848117294602	-0.0008046863170884	0.483774084747077	0.0497299500205141	0.0029131576883251	0.468604970671776	0.062334548595644	0.0029656576883251	-0.000642181552345	-0.327218294844514	-0.334417294844514	-0.003889955625717	10	-3.882611931475598	-3.7597112019547025	13.327701247956371	9.567990046001668	0.036500628277116184	0.008426426629348418	0.0008361198340435172	0.0004933276163981735	0.00975587407979011	40.36634543102166	1003.6895117062923	0.4595937503681609	0.035798725345625865	-0.32092592424078326	0.0052667623998694235	0	0.0019522748852375742	-0.0018887430686547633	1.5002667623998696	0.4595937503681609	0.03775100023086344	-0.32281466730943803
5	14	3	3	3.0	0	420	101290	286.43	-603.0	-48.0	1536.7	1507.6	-1703.5	16.0	0	1.23194272411362	984.38867652	39.9763412793298	456208.297709338	123.03	123.03	0.7	0.69	0	0	0	0	0	101290	1.4456734455218e-05	1.59907309590204	1.59907309590204	-5.55147734473966	-0.547438631514398	144.827045968018	-0.981068416306108	-16.5768765687815	-0.101978441022269	-0.0259682535916671	-0.0025607643382552	0.677460290852704	-0.0032859779197704	-0.470009391103106	-0.0003415652771225	0.675172781685255	-0.0613881971410344	0.0036607643382552003	0.666660290852704	-0.0259682535916671	0.0025607643382552	-0.0034843683400487004	-0.456090161746482	-0.462690161746482	-0.0036496229008817	10	16.08448299083143	15.972158772675435	-5.552252059223138	10.419906713452297	0.04053459941123491	0.008426426629348418	0.0002741043107846887	-0.0016070910503541314	0.007093439889778975	40.25991105320802	998.4036117063795	0.6573021508599359	0.03996560128573396	-0.4496878671423013	0.00690857556265878	0	0.0033591588280344445	-0.002477522853237685	3.0069085755626586	0.6573021508599359	0.04332476011376841	-0.452165389995539
6	14	3	40	4.5	0	420	101290	286.43	13.1	0.3	1727.5	1685.3	-1305.1	-5.6	0	1.23194272411362	984.38867652	39.9763412793298	456208.297709338	115.79	115.79	0.47	0.46	0	0	0	0	0	101290	1.4456734455218e-05	1.69905832100205	1.69905832100205	0.126388017799647	-0.0030927472164859	177.173780385919	-0.676538655916921	-17.6976608792662	0.028539013597641	0.0005912076900177	-1.44670038307425e-05	0.828769239816045	-0.0022659898619349	-0.501787340896186	9.5588204629978e-05	0.826260806458189	-0.0644350999290054	0.0005144670038307425	0.821419239816045	0.0005912076900177	1.44670038307425e-05	-0.0015205693337149	-0.49660397453850497	-0.501953974538505	-0.0030328532786145965	10	11.970471196137634	12.134032362477637	0.12640565538002352	12.26043801785766	0.04924288720984177	0.008426426629348418	0.0003014563198706421	-0.0012729759407316258	0.007454907008487435	40.274361186106766	999.1204366365642	0.8093076356966886	0.04851681418078381	-0.4892816834937319	0.008420388516779889	0	0.0049901979698937626	-0.0030196825371963765	4.50842038851678	0.8093076356966886	0.053507012150677574	-0.4923013660309283
7	14	4	21	-0.995	0	420	101290	286.43	962.8	-124.1	328.8	380.2	34.1	52.2	0	1.23194272411362	984.38867652	39.9763412793298	456208.297709338	89.48	89.48	0.3	0.29	0	0	0	0	0	101290	1.4456734455218e-05	2.19863615320549	2.19863615320549	8.85198608759231	-1.31267388660428	44.3637183565725	-0.538409783345625	-8.84835611409139	-0.357849232514171	0.0414071075567518	-0.0061403201803208	0.207521028550067	-0.0018033427949127	-0.250880221746939	-0.0011985756111442	0.206770696592493	0.0450044984123764	0.005244820180320801	0.19062452855006698	0.0414071075567518	0.0061403201803208	-0.0027552908352123	-0.256647937920918	-0.262550937920918	-0.0043366740782835	10	-0.1450220909912403	-0.13561727197235385	8.85322139153101	8.717604119558656	0.032971816520894016	0.008426426629348418	0.001262412312660542	1.674982435788875e-05	0.00970558876636685	40.364335208170914	1003.5895477719184	0.18697746283652555	0.0323409932870679	-0.2517376994434146	0.0023560179590669853	0	0.0003906705804136378	-0.0008449047539954023	-0.992643982040933	0.18697746283652555	0.03273166386748154	-0.25258260419741
8	14	4	57	-4.0	0	420	101290	286.43	560.8	-120.9	-263.6	-243.2	27.1	55.5	0	1.23194272411362	984.38867652	39.9763412793298	456208.297709338	98.43	98.43	0.48	0.47	0	0	0	0	0	101290	1.4456734455218e-05	1.9987195264536	1.9987195264536	5.14935223126477	-1.22382685554223	-30.4286490902309	-0.973940616796342	-5.28956841571271	-0.386461041843666	0.0240872251241387	-0.0057247186944079	-0.142336683905538	-0.0032621041598813	-0.14997679568595	-0.001294407636861	-0.143670198784302	0.0140996447006735	-0.0005752813055920998	-0.161936683905538	0.0240872251241387	0.0057247186944079	-0.003354049631748	-0.155965851585526	-0.156765851585526	-0.0035456774918501	10	4.431318016526939	3.9913507840567544	5.150070828767069	9.141421612823823	0.03595503923418244	0.008426426629348418	0.0017046563784882084	-0.00046377628572679156	0.009667306722109834	40.36280483210482	1003.5134488940037	-0.15885052474931774	0.035269814794181197	-0.15299348343941072	-0.0013092651842144475	0	0.00012064484040083932	0.0004695228973642988	-4.001309265184214	-0.15885052474931774	0.03539045963458204	-0.15252396054204642
9	14	5	56	6.995	0	420	101290	286.43	1171.8	-146.7	1907.0	1970.6	-546.0	74.5	0	1.23194272411362	984.38867652	39.9763412793298	456208.297709338	103.61	103.61	0.71	0.72	0	0	0	0	0	101290	1.4456734455218e-05	1.89879319552965	1.89879319552965	10.7842640702183	-1.35760335734299	224.318711597617	-0.417505140463288	-19.8954110077937	-0.487099546713235	0.0504457618727913	-0.0063504876397968	1.04930000185313	-0.0013983863410041	-0.564100840994949	-0.0016314849490888	1.04763325665207	-0.0777163324950356	0.0100494876397968	1.04320750185313	0.0504457618727913	0.0063504876397968	-0.0034628723110004	-0.576110628717427	-0.578319128717427	-0.005280033470347	10	4.977537140067978	5.2564492181529126	10.785769025575224	16.042218243728136	0.06882452582671995	0.008426426629348418	0.0008701676890550336	-0.0006002935134313211	0.00869630080497213	40.323987568177074	1001.5842016312937	1.025297374311992	0.06764292386035636	-0.5662197730441259	0.010578922766306731	0	0.00787655677024888	-0.0037937665555581716	7.005578922766307	1.025297374311992	0.07551948063060525	-0.570013539599684
10	14	6	31	4.005	0	420	101290	286.43	1721.2	-79.8	1243.7	1287.6	239.7	43.2	0	1.23194272411362	984.38867652	39.9763412793298	456208.297709338	82.02	82.02	0.78	0.74	0	0	0	0	0	101290	1.4456734455218e-05	2.39860964385305	2.39860964385305	15.840435328452	-0.689937624871104	161.096638496015	-0.0634841834476939	-14.0995980628282	-0.286719831926474	0.0740971125463421	-0.0032273346521106	0.753564880381553	-0.0002126331065158	-0.399770335069552	-0.0009603357127916	0.756899847800974	0.0212845350203259	0.0032323346521106	0.744878380381553	0.0740971125463421	0.0032273346521106	-0.00025295310244969997	-0.41476032618389796	-0.420654826183898	-0.003931997570726	10	-4.315201063364526	-4.349220581931253	15.84264587780873	11.493425295877476	0.045556517497523055	0.008426426629348418	0.00039881033034395546	0.0005767477507196543	0.009401984710412026	40.35219822881628	1002.98610840888	0.731066798318247	0.044711805667367405	-0.40706981397067177	0.007937074052134455	0	0.004433782440348276	-0.0028463584386757596	4.012937074052134	0.731066798318247	0.04914558810771568	-0.4099161724093475
11	14	7	23	-1.0	0	420	101290	286.43	-909.6	-262.6	653.7	733.1	-1546.8	133.2	0	1.23194272411362	984.38867652	39.9763412793298	456208.297709338	123.03	123.03	0.54	0.5	0	0	0	0	0	101290	1.4456734455218e-05	1.59907309590204	1.59907309590204	-8.37396026915223	-2.53109242537069	47.0757257609248	-1.31615100685147	-11.2080684912761	-0.882304415391811	-0.039171036884793	-0.0118397402861159	0.220207038353463	-0.0044082992334839	-0.317785888383062	-0.0029551790469512	0.220857128611209	-0.0353219282124511	0.0109397402861159	0.203307038353463	-0.039171036884793	0.0118397402861159	-0.006995760506329	-0.300845415365324	-0.306745415365324	-0.006018674178024401	10	17.083180007227295	16.126775942054834	-8.375128864086822	7.751647077968013	0.028454970942717567	0.008426426629348418	0.0006429974412043328	-0.001620035537417308	0.007449388533135442	40.27414057765275	999.1094910222959	0.200311525623872	0.02803571724461951	-0.2964127785089494	0.0023500027710253715	0	0.0003886782720463575	-0.0008427476138288866	-0.9976499972289746	0.200311525623872	0.028424395516665868	-0.29725552612277834
12	14	8	7	6.995	0	420	101290	286.43	2215.1	-213.2	1664.1	1787.7	377.7	121.6	0	1.23194272411362	984.38867652	39.9763412793298	456208.297709338	82.02	82.02	0.36	0.33	0	0	0	0	0	101290	1.4456734455218e-05	2.39860964385305	2.39860964385305	20.3828380696984	-1.83347275103239	220.910767774223	0.0210860254689268	-18.0343517987726	-0.796578034600929	0.0953451982314874	-0.0085764711617414	1.03335859672141	7.06252621682517e-05	-0.511333644351516	-0.0026680482110801	1.0372784826568	-0.0312097045974019	0.012275471161741401	1.02726609672141	0.0953451982314874	0.0085764711617414	-0.0025012895675442	-0.5359984714871141	-0.538206971487114	-0.0061917771983266	10	-4.622376350476637	-4.916520527301643	20.38568251611984	15.469161988818197	0.06614430346090133	0.008426426629348418	0.0006775573528298184	0.0006587892302597648	0.009762773212438	40.36662123310292	1003.7032271218939	1.0074981190258216	0.0648714695577107	-0.5256840983533727	0.010578922766306731	0	0.00787655677024888	-0.0037937665555581716	7.005578922766307	1.0074981190258216	0.07274802632795958	-0.5294778649089309
13	14	8	29	6.995	0	420	101290	286.43	2214.6	-211.8	1664.5	1787.2	376.5	120.7	0	1.23194272411362	984.38867652	39.9763412793298	456208.297709338	82.02	82.02	2.83	2.51	0	0	0	0	0	101290	1.4456734455218e-05	2.39860964385305	2.39860964385305	20.3782411065109	-1.82223790844083	220.875051979465	0.0183831699006	-18.0450441619338	-0.790702893971995	0.0953236949273414	-0.0085239177199523	1.03319152825335	6.15723525339872e-05	-0.511636808284602	-0.0026483700907153	1.03711003898458	-0.0312107017941598	0.012222917719952299	1.0270990282533499	0.0953236949273414	0.0085239177199523	-0.0024979694574913	-0.536295574650097	-0.538504074650097	-0.006171841214426399	10	-4.617778745778141	-4.911609303622172	20.381084911421343	15.469475607799172	0.06614577027781494	0.008426426629348418	0.0006794198258575322	0.0006580713172367038	0.009763917772442654	40.366666988424285	1003.705502506275	1.007331981893735	0.06487276108239441	-0.5259742918964833	0.010578922766306731	0	0.00787655677024888	-0.0037937665555581716	7.005578922766307	1.007331981893735	0.0727493178526433	-0.5297680584520414
14	14	8	50	6.995	0	420	101290	286.43	2215.3	-212.7	1662.7	1786.1	377.0	121.0	0	1.23194272411362	984.38867652	39.9763412793298	456208.297709338	82.02	82.02	4.73	4.5	0	0	0	0	0	101290	1.4456734455218e-05	2.39860964385305	2.39860964385305	20.3847002121964	-1.83288565699547	220.709365550279	0.018439825176817	-18.0453411937556	-0.792676340968257	0.0953539088116821	-0.0085737249005417	1.03241649361975	6.17621129865644e-05	-0.511645230121196	-0.0026549799286713	1.0363444526312	-0.0310863269671575	0.012272724900541699	1.02632399361975	0.0953539088116821	0.0085737249005417	-0.002510909956942	-0.536312512359677	-0.538521012359677	-0.0061799777832352	10	-4.624238752838517	-4.918509984198313	20.38754491848172	15.469034934283407	0.06614370921835899	0.008426426629348418	0.0006868882367366123	0.0006590800838628779	0.009772394949947909	40.36700587496532	1003.7223552087211	1.0065549626519747	0.06486965049617179	-0.5259820721369457	0.010578922766306731	0	0.00787655677024888	-0.0037937665555581716	7.005578922766307	1.0065549626519747	0.07274620726642067	-0.5297758386925039
15	14	9	12	6.995	0	420	101290	286.43	2214.4	-209.9	1664.1	1785.0	377.5	120.1	0	1.23194272411362	984.38867652	39.9763412793298	456208.297709338	82.02	82.02	7.77	7.62	0	0	0	0	0	101290	1.4456734455218e-05	2.39860964385305	2.39860964385305	20.3764060903615	-1.79932802158364	220.739955352138	0.0133108451086089	-18.0301766154363	-0.786757125295455	0.0953151112365948	-0.0084167516964383	1.0325595841311	4.45831731950547e-05	-0.511215264066212	-0.0026351541839221	1.03648175321432	-0.031142261716146	0.0121157516964383	1.0264670841310999	0.0953151112365948	0.0084167516964383	-0.0024864614128509	-0.5358716110929911	-0.538080111092991	-0.0061573221954376	10	-4.615943473550251	-4.909648854129509	20.379249639193453	15.469600785063944	0.06614635574024008	0.008426426629348418	0.0006858083804781329	0.0006577847805543539	0.009770019790380904	40.36691092477588	1003.717633356623	1.0067000328170428	0.0648725512233987	-0.5255521358774871	0.010578922766306731	0	0.00787655677024888	-0.0037937665555581716	7.005578922766307	1.0067000328170428	0.07274910799364759	-0.5293459024330452
16	14	9	33	6.995	0	420	101290	286.43	2214.7	-210.0	1664.8	1785.2	377.2	120.9	0	1.23194272411362	984.38867652	39.9763412793298	456208.297709338	82.02	82.02	7.43	7.73	0	0	0	0	0	101290	1.4456734455218e-05	2.39860964385305	2.39860964385305	20.3791565586293	-1.79107455274013	220.787787066971	0.0139253338581718	-18.0369678168521	-0.791939795371551	0.0953279771555275	-0.0083781442846397	1.03278332747424	4.66413338997011e-05	-0.511407817134281	-0.0026525129523346	1.0367053980339	-0.0311567396355052	0.012077144284639699	1.02669082747424	0.0953279771555275	0.0083781442846397	-0.0024715039539269	-0.5360677904585021	-0.538276290458502	-0.0061727301986335	10	-4.618694325648784	-4.912587334689081	20.38200049129199	15.469413156602908	0.0661454781894003	0.008426426629348418	0.0006834586105102081	0.0006582142730521075	0.009768099512910734	40.36683415910838	1003.7138158249331	1.0069232971770408	0.06487193730528783	-0.5257465369655591	0.010578922766306731	0	0.00787655677024888	-0.0037937665555581716	7.005578922766307	1.0069232971770408	0.07274849407553671	-0.5295403035211173
17	14	10	22	-3.995	0	420	101290	286.43	-42.5	-190.5	-175.1	-130.8	-469.6	97.8	0	1.23194272411362	984.38867652	39.9763412793298	456208.297709338	109.36	109.36	4.57	4.49	0	0	0	0	0	101290	1.4456734455218e-05	1.79895723288979	1.79895723288979	-0.400882605081458	-1.81502794959705	-30.3158727113104	-1.19374356344827	-5.88772622689906	-0.661150825463281	-0.0018752163618406	-0.0084901915551832	-0.14180914764355	-0.0039983093188632	-0.166936552094387	-0.0022144500607717	-0.141333925162103	-0.011750420846369	0.0021986915551832006	-0.16140464764354998	-0.0018752163618406	0.0084901915551832	-0.0049320444693357005	-0.16560001679657899	-0.166408016796579	-0.0043551248354616	10	9.979273447729478	9.032828458919854	-0.4009385486692633	8.63188991025059	0.03357042544102606	0.008426426629348418	0.0013913081481596945	-0.00098285299696373	0.008834881780544382	40.329527528551374	1001.859428278419	-0.15859002070883002	0.032985013403418625	-0.16271222964502757	-0.0013031492260756111	0	0.00011952033877043948	0.0004673296194706167	-3.9963031492260757	-0.15859002070883002	0.033104533742189066	-0.16224490002555694
18	14	11	17	-0.505	0	420	101290	286.43	264.8	-173.4	554.3	611.6	-597.4	88.1	0	1.23194272411362	984.38867652	39.9763412793298	456208.297709338	103.61	103.61	2.14	2.09	0	0	0	0	0	101290	1.4456734455218e-05	1.89879319552965	1.89879319552965	2.43300244497927	-1.64842907535441	56.8296845403585	-0.778878631821631	-10.2742181481868	-0.589528333877701	0.011380902876283	-0.0077108887595916	0.265833321120701	-0.002608766059337	-0.291308136116784	-0.0019745586097807	0.265722686563238	0.0137234621708995	0.0072563887595916	0.24927982112070102	0.011380902876283	0.0077108887595916	-0.0040983205586831994	-0.288318877374506	-0.294515877374506	-0.0051321816685836	10	6.315265760553808	5.971711718592059	2.4333419730211507	8.40505369161321	0.031411997301143565	0.008426426629348418	0.0009314094740989824	-0.0006755106265822371	0.008682325476865163	40.32342888569118	1001.5564482413645	0.24500689264896355	0.030873561349854885	-0.28337677682848395	0.0029429090117814344	0	0.0006095469806123368	-0.0010553730310335682	-0.5020570909882186	0.24500689264896355	0.03148310833046722	-0.28443214985951754
19	14	12	4	-3.995	0	420	101290	286.43	1000.4	-72.2	-333.6	-326.6	397.4	25.2	0	1.23194272411362	984.38867652	39.9763412793298	456208.297709338	89.48	89.48	7.64	7.76	0	0	0	0	0	101290	1.4456734455218e-05	2.19863615320549	2.19863615320549	9.19359826775637	-0.818685190349725	-30.7349823864925	-0.776281440356422	-4.74528782772682	-0.189734821220439	0.0430050734987201	-0.0038295796442164	-0.143769625125848	-0.002600067059689	-0.134544637119344	-0.0006354953668668	-0.146416422692292	0.0328842305892832	-0.0024619203557836003	-0.163365125125848	0.0430050734987201	0.0038295796442164	-0.0021167794832476	-0.145857744737324	-0.146665744737324	-0.0029761446676812	10	0.38345365502726736	0.3439982146741123	9.194881244032947	9.53887945870706	0.037812476116694534	0.008426426629348418	0.0019471231467638698	-4.2169606293340615e-05	0.010331380169818948	40.38935205888499	1004.8339349278677	-0.16004115080339304	0.03704310934037976	-0.14288999138198227	-0.0013031492260756111	0	0.00011952033877043948	0.0004673296194706167	-3.9963031492260757	-0.16004115080339304	0.0371626296791502	-0.14242266176251164
20	14	12	40	-0.505	0	420	101290	286.43	1321.4	-120.4	354.6	417.6	305.9	52.0	0	1.23194272411362	984.38867652	39.9763412793298	456208.297709338	82.02	82.02	4.38	4.37	0	0	0	0	0	101290	1.4456734455218e-05	2.39860964385305	2.39860964385305	12.153748174306	-1.24356488978965	54.8874349601819	-0.290441931509963	-8.79814729830661	-0.356527687566401	0.0568518243128019	-0.0058170476812538	0.256748022468779	-0.0009728024652048	-0.249456635413464	-0.0011941492455144	0.25623696926109	0.0591125414206971	0.0053625476812537995	0.24019452246877898	0.0568518243128019	0.0058170476812538	-0.0019217781421153	-0.259283490849834	-0.265480490849834	-0.004370986223708601	10	-3.4068365090304216	-3.2023618949181936	12.155444242605382	8.95308234768719	0.033975163916173085	0.008426426629348418	0.0012907472002711702	0.00041609835142186416	0.010133272181041451	40.381432426315456	1004.4399134865889	0.23539961415875346	0.033296931148324216	-0.2541075170093402	0.0029429090117814344	0	0.0006095469806123368	-0.0010553730310335682	-0.5020570909882186	0.23539961415875346	0.03390647812893655	-0.2551628900403738
21	14	13	20	-0.995	0	420	101290	286.43	767.6	-155.4	356.4	417.2	-124.3	73.2	0	1.23194272411362	984.38867652	39.9763412793298	456208.297709338	93.74	93.74	2.19	2.12	0	0	0	0	0	101290	1.4456734455218e-05	2.09871946862415	2.09871946862415	7.05617898239799	-1.5539034799887	44.4324401312455	-0.635117389584768	-9.01141874594084	-0.494379693133641	0.033006825719415	-0.0072687245429465	0.207842489732588	-0.0021272540058884	-0.255503587794772	-0.0016558689777585	0.207237981484307	0.0366110654396029	0.0063732245429465005	0.190945989732588	0.033006825719415	0.0072687245429465	-0.0034050903369697997	-0.258903659598261	-0.264806659598261	-0.0047826146237276	10	1.6510356209672699	1.5458876216987472	7.0571636795725	8.603051301271247	0.03243604534134425	0.008426426629348418	0.0011912252169617265	-0.00018607152813595066	0.009431580318174194	40.353381352932544	1003.0449242603866	0.1873944681573094	0.0318327474401533	-0.2540881516409086	0.0023560179590669853	0	0.0003906705804136378	-0.0008449047539954023	-0.992643982040933	0.1873944681573094	0.032223418020566934	-0.254933056394904
22	14	15	12	-4.0	0	420	101290	286.43	-884.3	-304.8	-53.2	37.0	-1162.0	164.7	0	1.23194272411362	984.38867652	39.9763412793298	456208.297709338	123.03	123.03	2.18	2.11	0	0	0	0	0	101290	1.4456734455218e-05	1.59907309590204	1.59907309590204	-8.14528336643401	-2.81694942486173	-29.5658659682708	-1.48374381982093	-6.7136145178895	-1.09589862735209	-0.0381013504875369	-0.0131768991346106	-0.138300826508606	-0.0049696324430509	-0.1903532223674	-0.0036705887499104	-0.135306116791306	-0.0476559154858548	0.006876899134610599	-0.157900826508606	-0.0381013504875368	0.0131768991346106	-0.007318475139162701	-0.178814243635889	-0.179614243635889	-0.0056395260033162	10	17.727808894561086	16.137043495578276	-8.146420049267078	7.990623446311197	0.030572679373343063	0.008426426629348418	0.0010017811200190082	-0.001620893805736202	0.007807313943631225	40.28844912601527	999.81954197634	-0.15546384032559657	0.03010083132252647	-0.17605448708045263	-0.0013092651842144475	0	0.00012064484040083932	0.0004695228973642988	-4.001309265184214	-0.15546384032559657	0.030221476162927308	-0.17558496418308833
23	14	15	32	-4.0	0	420	101290	286.43	-884.7	-305.1	-53.0	36.8	-1161.8	165.5	0	1.23194272411362	984.38867652	39.9763412793298	456208.297709338	123.03	123.03	4.43	4.34	0	0	0	0	0	101290	1.4456734455218e-05	1.59907309590204	1.59907309590204	-8.1489687442232	-2.81188286512765	-29.5609682880032	-1.48489378347092	-6.70716687564013	-1.10108795143683	-0.0381185896509285	-0.0131531991895614	-0.138277916534323	-0.0049734841164914	-0.190170410340351	-0.0036879698051738	-0.135282060081321	-0.0476715145364913	0.0068531991895614	-0.157877916534323	-0.0381185896509285	0.0131531991895614	-0.0073168662432849	-0.178626572699467	-0.179426572699467	-0.005656976950105599	10	17.731494786648632	16.14043834148542	-8.150105941354623	7.990332400130798	0.030571318130924875	0.008426426629348418	0.0010016369536197571	-0.0016211775458024635	0.0078068860371657105	40.28843201988037	999.8186929466701	-0.15544141593404567	0.030099516649043312	-0.17586986193736928	-0.0013092651842144475	0	0.00012064484040083932	0.0004695228973642988	-4.001309265184214	-0.15544141593404567	0.03022016148944415	-0.175400339040005
24	14	15	50	-4.0	0	420	101290	286.43	-885.1	-304.4	-52.6	36.6	-1162.8	165.0	0	1.23194272411362	984.38867652	39.9763412793298	456208.297709338	123.03	123.03	7.98	7.86	0	0	0	0	0	101290	1.4456734455218e-05	1.59907309590204	1.59907309590204	-8.15264684310623	-2.80688370351389	-29.5733291430201	-1.48929807791228	-6.71625037078629	-1.09782680890442	-0.0381357947656391	-0.0131298145140111	-0.138335737146343	-0.0049882358035765	-0.190427957532973	-0.0036770469763715	-0.135338539677104	-0.0476927111024114	0.006829814514011099	-0.157935737146343	-0.0381357947656391	0.0131298145140111	-0.007324245073207	-0.178879270579438	-0.179679270579438	-0.005645566007609499	10	17.735173398814208	16.143826495457418	-8.1537845535202	7.990041941937218	0.030569959638560296	0.008426426629348418	0.0010013691572037175	-0.0016214607085936427	0.007806335077958492	40.288409994547074	999.8175997627051	-0.15549851423059388	0.030098212030888773	-0.17611885254305193	-0.0013092651842144475	0	0.00012064484040083932	0.0004695228973642988	-4.001309265184214	-0.15549851423059388	0.030218856871289612	-0.17564932964568764
25	14	16	12	-4.0	0	420	101290	286.43	-885.8	-302.3	-51.9	36.4	-1163.0	164.0	0	1.23194272411362	984.38867652	39.9763412793298	456208.297709338	123.03	123.03	0.64	0.64	0	0	0	0	0	101290	1.4456734455218e-05	1.59907309590204	1.59907309590204	-8.15909520269594	-2.78571525850967	-29.5476058938864	-1.48157399451652	-6.71207708869735	-1.09128564499952	-0.0381659583827588	-0.0130307944669363	-0.138215411003368	-0.0049623648581184	-0.190309631154335	-0.0036551380862229	-0.135216402535	-0.0477144077150427	0.0067307944669363	-0.15781541100336802	-0.0381659583827588	0.0130307944669363	-0.0072690677521119	-0.178752442495779	-0.179552442495779	-0.0056275594617664	10	17.74162265827924	16.149766561896826	-8.160233812985233	7.989532748911593	0.030567578108781836	0.008426426629348418	0.0010012401541849329	-0.001621957102522435	0.007805709681010915	40.288384993465264	999.8163588840575	-0.1553802377723252	0.03009590460443233	-0.17599420006443653	-0.0013092651842144475	0	0.00012064484040083932	0.0004695228973642988	-4.001309265184214	-0.1553802377723252	0.03021654944483317	-0.17552467716707223
26	14	16	34	-4.0	0	420	101290	286.43	-884.7	-304.7	-53.1	36.3	-1162.1	165.5	0	1.23194272411362	984.38867652	39.9763412793298	456208.297709338	123.03	123.03	0.43	0.43	0	0	0	0	0	101290	1.4456734455218e-05	1.59907309590204	1.59907309590204	-8.14896656307965	-2.80550532805733	-29.6052083345473	-1.48465863686086	-6.71105828508854	-1.10107520126195	-0.0381185794481508	-0.0131233668603186	-0.138484859060829	-0.0049726965194638	-0.190280744695427	-0.0036879270999023	-0.135488499217944	-0.0476859399394839	0.0068233668603186	-0.158084859060829	-0.0381185794481508	0.0131233668603186	-0.0073076897375568	-0.178736909930226	-0.179536909930226	-0.0056575744695428	10	17.731492605200685	16.140436332285525	-8.150103759906676	7.990332572378849	0.030571318936540505	0.008426426629348418	0.0010013190611882178	-0.0016211773778795485	0.0078065683126570876	40.288419318416985	999.8180625345204	-0.1556452628933849	0.030099536420780428	-0.17597860731328283	-0.0013092651842144475	0	0.00012064484040083932	0.0004695228973642988	-4.001309265184214	-0.1556452628933849	0.030220181261181266	-0.17550908441591853
27	14	17	22	4.995	0	420	101290	286.43	1510.4	-117.8	1455.8	1521.6	-14.1	58.0	0	1.23194272411362	984.38867652	39.9763412793298	456208.297709338	89.48	89.48	0.28	0.27	0	0	0	0	0	101290	1.4456734455218e-05	2.19863615320549	2.19863615320549	13.8992998905272	-1.10453917841426	182.16699028537	-0.135437210825326	-15.6050120769356	-0.383788295681904	0.0650170255393102	-0.0051667244061027	0.852126074916564	-0.0004536316498323	-0.44245381173012	-0.0012854555752853	0.854550910698367	-0.0094234912469319	0.0061617244061027004	0.846112574916564	0.0650170255393102	0.0051667244061027	-0.0010902119929072	-0.455973553369025	-0.460779053369025	-0.0044359889594843	10	-1.182624300951911	-1.2110142757712823	13.901239552398549	12.690225276627267	0.051352030914981514	0.008426426629348418	0.0003790870060821704	0.0001521661138527189	0.008957679749283307	40.3344365420581	1002.1033409196554	0.8311554345729146	0.050444256280616176	-0.4479130888009319	0.008886912536689018	0	0.005558470773196199	-0.003186985320588726	5.003886912536689	0.8311554345729146	0.05600272705381237	-0.45110007412152064
28	14	18	5	2.005	0	420	101290	286.43	431.6	-181.4	1065.1	1133.9	-690.5	90.4	0	1.23194272411362	984.38867652	39.9763412793298	456208.297709338	103.61	103.61	0.26	0.26	0	0	0	0	0	101290	1.4456734455218e-05	1.89879319552965	1.89879319552965	3.97673914291615	-1.73446367686702	117.85247495226	-0.720147591677829	-13.2815470041133	-0.597524808367844	0.0186020700650086	-0.0081133344890791	0.551280815162798	-0.0024120530697941	-0.376575876306318	-0.0020013418984626	0.55159413395946	-0.0006968204758435	0.0083178344890791	0.538291815162798	0.0186020700650086	0.0081133344890791	-0.0040264233871952	-0.37452242497084104	-0.381818924970841	-0.0051624624716752	10	5.782031781133943	5.657595802602234	3.977294101032635	9.63488990363487	0.03676352337801123	0.008426426629348418	0.0005295055436109273	-0.0006426473787546057	0.008313284794204739	40.30867598941519	1000.8237151467143	0.5294522496721382	0.03615981073848494	-0.3683722004829409	0.005835281720596125	0	0.002396498551339185	-0.0020926229563150637	2.010835281720596	0.5294522496721382	0.03855630928982413	-0.37046482343925596
29	14	18	43	6.995	0	420	101290	286.43	64.9	-69.2	2172.1	2165.3	-1519.9	28.7	0	1.23194272411362	984.38867652	39.9763412793298	456208.297709338	123.03	123.03	0.7	0.69	0	0	0	0	0	101290	1.4456734455218e-05	1.59907309590204	1.59907309590204	0.600409954973968	-0.690604557942096	228.578059627886	-0.8214147921198	-21.7913388331947	-0.185619758951046	0.0028085493286754	-0.0032304543779134	1.06922403700929	-0.0027512361268761	-0.617856678477045	-0.0006217124302938	1.06160760324252	-0.127425374260565	0.0069294543779134	1.06313153700929	0.0028085493286754	0.0032304543779134	-0.0040557802525165	-0.616439776441976	-0.618648276441976	-0.0043499828535098	10	15.16281242283057	15.929898917750032	0.6004937428126319	16.530392660562665	0.07110775016850118	0.008426426629348418	0.000966893017955826	-0.0016035465298881455	0.007789773117416098	40.28774790796018	999.7847386801768	1.046759973616707	0.07001273511245042	-0.6069469878956786	0.010578922766306731	0	0.00787655677024888	-0.0037937665555581716	7.005578922766307	1.046759973616707	0.0778892918826993	-0.6107407544512368
30	14	19	4	6.995	0	420	101290	286.43	64.3	-68.6	2172.0	2164.9	-1519.6	28.6	0	1.23194272411362	984.38867652	39.9763412793298	456208.297709338	123.03	123.03	0.64	0.64	0	0	0	0	0	101290	1.4456734455218e-05	1.59907309590204	1.59907309590204	0.594888161581338	-0.68226764609569	228.554731926435	-0.817519686252932	-21.7816556430377	-0.184953513791825	0.0027827199282841	-0.0031914566431565	1.06911491656632	-0.0027381899094452	-0.617582127943308	-0.0006194809173372	1.06149614943188	-0.127437722422013	0.0068904566431565	1.06302241656632	0.002782719928284	0.0031914566431565	-0.0040321930864154	-0.6161579458150691	-0.618366445815069	-0.0043448954407796	10	15.168334986795275	15.935663145809464	0.5949711788479274	16.53063432465739	0.07110888044760756	0.008426426629348418	0.0009681702788339818	-0.001604030167026287	0.007790566741156112	40.287779634133656	999.7863133205177	1.0466508851070275	0.07001373771576994	-0.6066685417944201	0.010578922766306731	0	0.00787655677024888	-0.0037937665555581716	7.005578922766307	1.0466508851070275	0.07789029448601882	-0.6104623083499783
31	14	19	24	6.995	0	420	101290	286.43	62.4	-67.0	2172.5	2164.3	-1520.7	27.2	0	1.23194272411362	984.38867652	39.9763412793298	456208.297709338	123.03	123.03	0.43	0.43	0	0	0	0	0	101290	1.4456734455218e-05	1.59907309590204	1.59907309590204	0.577412510806783	-0.674003455404189	228.521479159144	-0.82656633519803	-21.7775250392579	-0.175835164617444	0.0027009737366288	-0.0031527990775609	1.06895936944976	-0.0027684906389228	-0.617465011636182	-0.000588940036035	1.06133180481212	-0.127499917206998	0.0068517990775609	1.06286686944976	0.0027009737366288	0.0031527990775609	-0.0040551729826141004	-0.6160177891011771	-0.618226289101177	-0.0043173804363093	10	15.185813076315199	15.953905926319802	0.5774930893280039	16.531399015647807	0.07111245695842633	0.008426426629348418	0.0009702497097654857	-0.0016055604490814472	0.007791115890032456	40.28780158709655	999.7874028954718	1.0464965930801924	0.07001718283972971	-0.6065298826229397	0.010578922766306731	0	0.00787655677024888	-0.0037937665555581716	7.005578922766307	1.0464965930801924	0.0778937396099786	-0.6103236491784979
32	14	19	42	6.995	0	420	101290	286.43	63.1	-67.9	2171.9	2164.4	-1520.9	27.6	0	1.23194272411362	984.38867652	39.9763412793298	456208.297709338	123.03	123.03	0.28	0.27	0	0	0	0	0	101290	1.4456734455218e-05	1.59907309590204	1.59907309590204	0.5838591273636	-0.68342575370122	228.485896705875	-0.825165447297513	-21.7868809748832	-0.17845351424612	0.0027311292003297	-0.0031968739456364	1.06879292471577	-0.0027637985230289	-0.617730283419333	-0.0005977099025632	1.06117027137701	-0.127449716103366	0.0068958739456364	1.0627004247157699	0.0027311292003297	0.0031968739456364	-0.0040617779409422	-0.6162915602912831	-0.618500060291283	-0.0043268893966541995	10	15.179365560126282	15.94717634694992	0.58394060551692	16.53111695246684	0.07111113773009625	0.008426426629348418	0.000971796512645558	-0.0016049960044308678	0.007793227137563108	40.28788598704836	999.7915918605522	1.046328327963281	0.07001559057492494	-0.6067968947974494	0.010578922766306731	0	0.00787655677024888	-0.0037937665555581716	7.005578922766307	1.046328327963281	0.07789214734517383	-0.6105906613530075
33	14	20	1	6.995	0	420	101290	286.43	63.5	-68.0	2171.6	2163.9	-1520.1	27.9	0	1.23194272411362	984.38867652	39.9763412793298	456208.297709338	123.03	123.03	0.26	0.26	0	0	0	0	0	101290	1.4456734455218e-05	1.59907309590204	1.59907309590204	0.587539717520798	-0.681322769912416	228.456460339241	-0.826221647377322	-21.7804026162977	-0.180400734098485	0.002748345968522	-0.0031870367774494	1.06865522965081	-0.0027673361459748	-0.61754660048235	-0.0006042318956612	1.06103569791129	-0.127415858602819	0.0068860367774494	1.06256272965081	0.0027483459685219	0.0031870367774494	-0.0040617429687594	-0.61611272995152	-0.61832122995152	-0.0043333585861343	10	15.175684456338887	15.94333419085153	0.5876217093043146	16.530955900155845	0.07111038447768465	0.008426426629348418	0.0009731204831190598	-0.0016046737108847378	0.00779487340158274	40.28795179866064	999.7948582493804	1.046189336272362	0.07001462018456998	-0.6066188376744204	0.010578922766306731	0	0.00787655677024888	-0.0037937665555581716	7.005578922766307	1.046189336272362	0.07789117695481887	-0.6104126042299786
34	14	20	45	-3.995	0	420	101290	286.43	1338.2	-24.6	-387.2	-393.5	680.5	-5.5	0	1.23194272411362	984.38867652	39.9763412793298	456208.297709338	82.02	82.02	0.7	0.69	0	0	0	0	0	101290	1.4456734455218e-05	2.39860964385305	2.39860964385305	12.3013161065163	-0.436407762080044	-31.1672221507133	-0.598352785048413	-4.34575125394945	0.009798370259837	0.0575421057005602	-0.0020413930799528	-0.145791521481117	-0.0020041151128941	-0.123216451077459	3.28185351688194e-05	-0.149446192706176	0.047245075403282	-0.0042501069200472	-0.16538702148111697	0.0575421057005602	0.0020413930799528	-0.0009729335535805998	-0.138626864371938	-0.139434864371938	-0.0023891457609891	10	-2.7246978690151398	-2.4357491780096687	12.303032768075354	9.867283590065686	0.039348444165822546	0.008426426629348418	0.002146261960915778	0.00031234751392208185	0.010885036104186277	40.41148519746858	1005.9355234077113	-0.1618444794929423	0.03850561191466741	-0.1356575171805524	-0.0013031492260756111	0	0.00011952033877043948	0.0004673296194706167	-3.9963031492260757	-0.1618444794929423	0.038625132253437854	-0.13519018756108178
35	14	21	13	-3.995	0	420	101290	286.43	1339.3	-25.9	-386.2	-392.3	680.9	-4.5	0	1.23194272411362	984.38867652	39.9763412793298	456208.297709338	82.02	82.02	0.47	0.46	0	0	0	0	0	101290	1.4456734455218e-05	2.39860964385305	2.39860964385305	12.3114232519622	-0.444825071323136	-31.0223170684566	-0.603939467308831	-4.3512073682567	0.0032804717423622	0.0575893840914689	-0.0020807668911764	-0.145113696158398	-0.0020228270745141	-0.123371150001149	1.09875698092698e-05	-0.148773308266311	0.0473394626108486	-0.004210733108823601	-0.164709196158398	0.0575893840914689	0.0020807668911764	-0.0010041916581469	-0.138794888850443	-0.139602888850443	-0.0024087459460224	10	-2.73480642492372	-2.444756220306486	12.313141323983935	9.868385103677449	0.03935359601853021	0.008426426629348418	0.0021480289162027783	0.00031355042057997645	0.010888005966131173	40.41160392168324	1005.9414340581053	-0.16118022593318593	0.0385104271375962	-0.13582114456907454	-0.0013031492260756111	0	0.00011952033877043948	0.0004673296194706167	-3.9963031492260757	-0.16118022593318593	0.03862994747636664	-0.1353538149496039
36	14	21	35	-3.995	0	420	101290	286.43	1339.8	-26.4	-385.8	-392.8	680.9	-4.1	0	1.23194272411362	984.38867652	39.9763412793298	456208.297709338	82.02	82.02	0.3	0.29	0	0	0	0	0	101290	1.4456734455218e-05	2.39860964385305	2.39860964385305	12.3160253191118	-0.4478767188685	-31.0285005285093	-0.621678471225317	-4.35605626784585	0.0006740690779112	0.0576109112705183	-0.0020950416422759	-0.1451426206498	-0.0020822418657962	-0.123508632375103	2.25771828916505e-06	-0.14880366226114	0.0473589223292066	-0.0041964583577241005	-0.16473812064979998	0.0576109112705183	0.0020950416422759	-0.0010680838878201998	-0.138938438723711	-0.139746438723711	-0.0024130032506141	10	-2.739409134296702	-2.448857303919123	12.317744033356915	9.868886729437792	0.0393559421557037	0.008426426629348418	0.0021482916878367954	0.00031409825185678896	0.010888816569042002	40.411636326621846	1005.9430473315374	-0.1612082721671241	0.03851266124321893	-0.13596140077293334	-0.0013031492260756111	0	0.00011952033877043948	0.0004673296194706167	-3.9963031492260757	-0.1612082721671241	0.03863218158198937	-0.1354940711534627
37	14	21	55	-3.995	0	420	101290	286.43	1337.9	-26.5	-385.0	-391.9	680.1	-4.3	0	1.23194272411362	984.38867652	39.9763412793298	456208.297709338	82.02	82.02	0.48	0.47	0	0	0	0	0	101290	1.4456734455218e-05	2.39860964385305	2.39860964385305	12.2985386377996	-0.45194139933319	-30.9438108834809	-0.624280002154733	-4.3480468470484	0.0019690389966538	0.0575291134811021	-0.0021140550771728	-0.144746466249427	-0.0020909553999897	-0.123281538750048	6.59507385889859e-06	-0.148402771658418	0.0473049231446122	-0.004177444922827201	-0.16434196624942699	0.0575291134811021	0.0021140550771728	-0.0010818200396745998	-0.138688290148907	-0.139496290148907	-0.0024077194445107	10	-2.7219200126997176	-2.433273980378191	12.30025491175993	9.86698093138174	0.039347028610949936	0.008426426629348418	0.0021477513072744705	0.0003120170124757361	0.010886194949098624	40.41153152384828	1005.9378297509453	-0.1608214403200457	0.03850413840079681	-0.13571731607141702	-0.0013031492260756111	0	0.00011952033877043948	0.0004673296194706167	-3.9963031492260757	-0.1608214403200457	0.03862365873956725	-0.13524998645194639
38	14	22	16	-3.995	0	420	101290	286.43	1339.1	-27.6	-385.7	-392.0	681.0	-3.7	0	1.23194272411362	984.38867652	39.9763412793298	456208.297709338	82.02	82.02	0.71	0.72	0	0	0	0	0	101290	1.4456734455218e-05	2.39860964385305	2.39860964385305	12.3095833713896	-0.462086650058184	-30.9707451360456	-0.625288630430627	-4.34799577822059	-0.0019534097872495	0.0575807776463158	-0.0021615117138873	-0.144872457126714	-0.0020943336865483	-0.123280090779523	-6.54272558618651e-06	-0.148532055807142	0.0473476840615257	-0.004129988286112701	-0.164467957126714	0.0575807776463158	0.0021615117138873	-0.0010994487128463998	-0.138701403876704	-0.139509403876704	-0.0024195971414337	10	-2.7329662875939142	-2.443116616882582	12.311301186654129	9.868184569771547	0.039352658108063134	0.008426426629348418	0.00214829154577645	0.00031333142069607333	0.010888049595820942	40.411605665838614	1005.941520890501	-0.1609441416660018	0.03850950599816932	-0.13572965083774177	-0.0013031492260756111	0	0.00011952033877043948	0.0004673296194706167	-3.9963031492260757	-0.1609441416660018	0.03862902633693976	-0.13526232121827114
39	14	22	57	3.995	0	420	101290	286.43	1169.0	-98.2	1338.1	1380.8	-222.8	50.1	0	1.23194272411362	984.38867652	39.9763412793298	456208.297709338	93.74	93.74	0.78	0.74	0	0	0	0	0	101290	1.4456734455218e-05	2.09871946862415	2.09871946862415	10.7602887152661	-0.900542507992106	161.23313725072	-0.289347625212894	-14.744524655956	-0.330780552274794	0.0503336118884381	-0.004212485211666	0.754203383262318	-0.0009691372097855	-0.418056141450779	-0.00110791212213	0.755877483526499	-0.0023336040174553	0.0042179852116659994	0.745492883262318	0.0503336118884381	0.004212485211666	-0.0012755112188402996	-0.426339319367271	-0.432242819367271	-0.0041507152018261	10	0.7546898328685234	0.7601451697204384	10.761790324837076	11.521935494557514	0.04568886160030783	0.008426426629348418	0.0004117932535785996	-9.258854517813506e-05	0.008745631337748883	40.325959622390855	1001.6821694545515	0.7326223577577305	0.044900068478730286	-0.4189788049925226	0.007927144531094707	0	0.004422695786193123	-0.002842797557698985	4.002927144531095	0.7326223577577305	0.04932276426492341	-0.4218216025502216
40	14	23	29	4.5	0	420	101290	286.43	735.1	-82.5	1535.3	1562.4	-650.2	34.2	0	1.23194272411362	984.38867652	39.9763412793298	456208.297709338	103.61	103.61	0.54	0.5	0	0	0	0	0	101290	1.4456734455218e-05	1.89879319552965	1.89879319552965	6.76917171719442	-0.830022657393585	173.948312253356	-0.447953865223165	-16.2049061733542	-0.233387173079251	0.0316642862506158	-0.0038826131344028	0.813681404773792	-0.0015003709076084	-0.459462797579423	-0.0007817039920453	0.813657447821405	-0.0322740314055878	0.0043826131344028	0.8063314047737921	0.0316642862506158	0.0038826131344028	-0.0017753665712513	-0.463037470648559	-0.468387470648559	-0.0039274322370799995	10	5.326760489313496	5.404436919490282	6.7701163622041625	12.174553281694443	0.048841198564486585	0.008426426629348418	0.0003679730597678966	-0.0006159692337400935	0.00817843045537622	40.30328500634319	1000.5560277183747	0.7933024062548545	0.04805200456808215	-0.4555555414026243	0.008420388516779889	0	0.0049901979698937626	-0.0030196825371963765	4.50842038851678	0.7933024062548545	0.05304220253797592	-0.45857522393982064
41	14	24	5	1.507	0	420	101290	286.43	912.6	-148.3	871.0	925.4	-226.4	86.0	0	1.23194272411362	984.38867652	39.9763412793298	456208.297709338	93.74	93.74	0.36	0.33	0	0	0	0	0	101290	1.4456734455218e-05	2.09871946862415	2.09871946862415	8.40107253074764	-1.25503834429761	104.62525571288	-0.458182062404493	-11.8501053019768	-0.571764900047403	0.0392978604383864	-0.0058707172826469	0.489407594362162	-0.0015346290995329	-0.335989759854934	-0.0019150619932599	0.490271815316289	0.0264132989394271	0.0058242172826469	0.47571739436216204	0.0392978604383864	0.0058707172826469	-0.0024392407046994	-0.33986457846770296	-0.347065978467703	-0.0050462219319691	10	1.0496003497561581	1.0183848397696935	8.402244909226757	9.42062974899645	0.03581021432912581	0.008426426629348418	0.0007124897149153737	-0.00012355594350939487	0.009015360400754397	40.336742403466516	1002.2179217924377	0.4672544823347272	0.035173158175319796	-0.33381845935812143	0.00528026936226861	0	0.001962301202879907	-0.0018935868758503708	1.5122802693622686	0.4672544823347272	0.0371354593781997	-0.33571204623397183
42	14	24	53	1.507	0	420	101290	286.43	-334.7	-157.2	1125.1	1149.7	-1301.9	91.1	0	1.23194272411362	984.38867652	39.9763412793298	456208.297709338	115.79	115.79	2.83	2.51	0	0	0	0	0	101290	1.4456734455218e-05	1.69905832100205	1.69905832100205	-3.07420352884078	-1.33931491127358	107.528776795585	-0.993146236146831	-13.7087776099463	-0.602205596678192	-0.0143802616622367	-0.006264939419776	0.502989451425108	-0.0033264312140116	-0.388689279942704	-0.002017019670552	0.502437289488842	-0.0276034472758405	0.0062184394197760005	0.489299251425108	-0.0143802616622367	0.006264939419776	-0.0043388159243459	-0.37743476050813596	-0.384636160508136	-0.0051981014234052	10	12.52647779614906	12.192005479740851	-3.0746325371661443	9.117372942574708	0.03439186199775474	0.008426426629348418	0.00046187150996838245	-0.0012782171706744636	0.0076100809686423364	40.280564473295584	999.4282408144479	0.4819361939783459	0.033874327472915314	-0.3717550587388565	0.00528026936226861	0	0.001962301202879907	-0.0018935868758503708	1.5122802693622686	0.4819361939783459	0.03583662867579522	-0.3736486456147069
1	13	14	13	1.507	0	420	101290	286.43	1350.6	-54.1	221.7	251.1	1585.4	29.2	0	1.23194272411362	984.38867652	39.9763412793298	456208.297709338	82.02	82.02	0.0	0.0	0	0	0	0	0	101290	1.4456734455218e-05	2.39860964385305	2.39860964385305	12.435989179542	-0.509402035802516	67.7222546752013	-0.194778750306927	7.32933430513595	-0.18853440075181	0.0581720685546127	-0.0023828398144082	0.316785708379318	-0.0006523894379954	0.207810919002413	-0.0006314746940077	0.318206010191247	0.0498207755005536	0.0023363398144082	0.30309550837931803	0.0581720685546127	0.0023828398144082	-0.0006083347637547	0.198616348807595	0.191414948807595	-0.0037149274601444	-10	-2.9858793758866486	-2.8929210588842538	12.437724634869562	9.54480357598531	0.03639098360874415	0.008426426629348418	0.000976108522724804	0.0003738824705192339	0.009776417622592456	40.36716668669981	1003.7303523663453	0.29725492075562493	0.03568973689738327	0.19478905293339488	0.00528026936226861	0	0.001962301202879907	-0.0018935868758503708	1.5122802693622686	0.29725492075562493	0.03765203810026318	0.1928954660575445
2	13	14	50	3.993	0	420	101290	286.43	1135.5	-122.4	742.2	807.8	1221.3	71.3	0	1.23194272411362	984.38867652	39.9763412793298	456208.297709338	89.48	89.48	0.0	0.0	0	0	0	0	0	101290	1.4456734455218e-05	2.19863615320549	2.19863615320549	10.4546809731635	-1.05854748961859	125.024966837146	-0.108475449460363	4.26044902777297	-0.461149831009785	0.0489040646069354	-0.004951588188554	0.584831720009302	-0.0003633262735192	0.12079785025006	-0.0015445693054817	0.586817493994769	0.0080608315835323	0.004959288188554001	0.576117020009302	0.0489040646069354	0.004951588188554	-0.0008492209129505001	0.112918994478198	0.107014094478198	-0.0045569165664354995	-10	1.0581498531867837	1.0657384715421512	10.456139934853702	11.521878406395853	0.045688594595164105	0.008426426629348418	0.0006158170079772843	-0.0001292083057709073	0.008913035331554795	40.33265182157876	1002.0146606285681	0.565982807568748	0.044884907310018	0.11093268780981086	0.007925157857825577	0	0.004420479262841853	-0.002842085105706306	4.000925157857825	0.565982807568748	0.04930538657285985	0.10809060270410456
3	13	15	28	3.507	0	420	101290	286.43	-763.6	-193.7	951.5	1006.9	-172.7	109.5	0	1.23194272411362	984.38867652	39.9763412793298	456208.297709338	123.03	123.03	0.0	0.0	0	0	0	0	0	101290	1.4456734455218e-05	1.59907309590204	1.59907309590204	-7.01426831413918	-1.72549539776966	115.860611394856	-0.922203864035574	4.70285913701404	-0.708664442667523	-0.0328107793710367	-0.0080713833954478	0.54196343624425	-0.0030888177464295	0.133341643117158	-0.0023735915583743	0.538941467660997	-0.065901501530849	0.0086136833954478	0.53222813624425	-0.0328107793710367	0.0080713833954478	-0.0045564228285749	0.148834558675431	0.142589458675431	-0.0056863544742198	-10	18.022591672626337	18.017322044041	-7.015247162635993	11.002074881405004	0.043257438802735346	0.008426426629348418	0.0006167549922416348	-0.0017753633377640449	0.007267818283826008	40.26688206340018	998.749389137245	0.5245753903256587	0.04263545329369712	0.14669451198514097	0.00743497026376979	0	0.0038905588263575407	-0.002666296195875026	3.51443497026377	0.5245753903256587	0.04652601212005466	0.14402821578926595
4	13	16	3	1.5	0	420	101290	286.43	811.2	-116.2	290.5	336.4	1185.3	66.9	0	1.23194272411362	984.38867652	39.9763412793298	456208.297709338	93.74	93.74	0.0	0.0	0	0	0	0	0	101290	1.4456734455218e-05	2.09871946862415	2.09871946862415	7.47361865580753	-1.03727706828698	67.3388120711723	-0.470345426784413	7.36587019235908	-0.433484466846169	0.0349594914019279	-0.0048520911248284	0.314992071449734	-0.0015753689155521	0.208846832495278	-0.0014519072910156	0.315799264333248	0.0267019804856277	0.0048020911248284	0.301292071449734	0.0349594914019279	0.0048520911248284	-0.0022039302256693	0.206193396073056	0.198993396073056	-0.0045774257900561	-10	1.9732389496095726	1.9149309369093044	7.4746616071260705	9.389592544035375	0.035665751249242414	0.008426426629348418	0.0008877539210236924	-0.00022923126999444682	0.009084949280377664	40.339524312267585	1002.3561667192203	0.29589133414635166	0.03502643355230436	0.2024973268053699	0.005272391036445918	0	0.001956449942634979	-0.001890761585442248	1.5052723910364458	0.29589133414635166	0.036982883494939334	0.20060656521992765
5	13	16	54	-0.5	0	420	101290	286.43	1374.6	-11.1	-206.4	-207.0	1807.6	0.5	0	1.23194272411362	984.38867652	39.9763412793298	456208.297709338	82.02	82.02	0.0	0.0	0	0	0	0	0	101290	1.4456734455218e-05	2.39860964385305	2.39860964385305	12.6455546239127	-0.196179023760226	18.8497604501696	-0.321885267501242	10.1084818169733	-0.0082480544932223	0.0591523569113012	-0.0009176704365367	0.0881738912212269	-0.0010781183698594	0.286608961830598	-2.76259275044642e-05	0.0876543386872302	0.0599195571625747	0.0004676704365367	0.0716238912212269	0.0591523569113012	0.0009176704365367	-0.0006369566849916	0.276136694452648	0.269936694452648	-0.003215957875622427	-10	-3.8980350862436577	-3.66304385405941	12.647319324317708	8.984275470258298	0.034120056233128845	0.008426426629348418	0.001249730434201799	0.00047982072489273546	0.010155977788442952	40.38234011342589	1004.485069260152	0.07019093627584393	0.033437427818470505	0.27061212108514626	0.0029488693704001995	0	0.0006120185471574737	-0.0010575105085146425	-0.4970511306295998	0.07019093627584393	0.034049446365627976	0.2695546105766316
6	13	17	26	-4.002	0	420	101290	286.43	1224.6	-38.6	-992.2	-991.1	2114.6	5.8	0	1.23194272411362	984.38867652	39.9763412793298	456208.297709338	89.48	89.48	0.0	0.0	0	0	0	0	0	101290	1.4456734455218e-05	2.19863615320549	2.19863615320549	11.2603549167885	-0.553293844200558	-69.718896620592	-0.628777649625147	15.300404364475	-0.0579951589204804	0.0526727812891854	-0.0025881533805632	-0.326125439256324	-0.0021060197625083	0.433817173527208	-0.0001942482384498	-0.329006321407515	0.0297836279315252	-0.0037084466194368003	-0.345731839256324	0.0526727812891854	0.0025881533805632	-0.0012419412735992	0.41976699377173704	0.418971193771737	-0.0025950178656141444	-10	-1.679314393019773	-1.5029186747565468	11.261926311122211	9.759007636365665	0.03884493030103933	0.008426426629348418	0.0011167322447231472	0.00018974831577327043	0.009732907189844835	40.36542729879108	1003.6438544043806	-0.3390988807263031	0.038099679842352706	0.4117136508457614	-0.0013117115216590169	0	0.0001210961068425485	0.0004704001920932457	-4.0033117115216585	-0.3390988807263031	0.038220775949195256	0.41218405103785466
7	13	18	19	6.994	0	420	101290	286.43	801.4	-188.2	1375.1	1457.3	666.5	109.5	0	1.23194272411362	984.38867652	39.9763412793298	456208.297709338	103.61	103.61	0.0	0.0	0	0	0	0	0	101290	1.4456734455218e-05	1.89879319552965	1.89879319552965	7.38080653695596	-1.62674250273028	189.98489062869	-0.424377293946911	-0.625906319872294	-0.706703711690457	0.0345253423477125	-0.0076094450568678	0.888696019466928	-0.0014214038433853	-0.0177465185959568	-0.0023670243112893	0.886287143160088	-0.0739439933308971	0.0113082450568678	0.882605019466928	0.0345253423477125	0.0076094450568678	-0.0037477908113248	-0.0252673888185595	-0.0274775888185595	-0.006044717980626901	-10	8.379733917100943	8.832070054351068	7.381836536246034	16.2139065905971	0.06962632368824918	0.008426426629348418	0.0008171215332945196	-0.0009633727196636476	0.008280175442979291	40.307352398691066	1000.7579893839859	0.8681683246293762	0.06848745186497884	-0.024854092300105945	0.010578161390626192	0	0.007875423043668586	-0.003793493514374598	7.004578161390626	0.8681683246293762	0.07636287490864743	-0.028647585814480542
8	13	19	16	6.995	0	420	101290	286.43	-340.3	-159.9	1588.6	1634.3	-229.5	83.0	0	1.23194272411362	984.38867652	39.9763412793298	456208.297709338	123.03	123.03	0.0	0.0	0	0	0	0	0	101290	1.4456734455218e-05	1.59907309590204	1.59907309590204	-3.12296116643997	-1.50622532733433	191.909260353277	-0.858114453927688	-1.17829483656238	-0.531751660831537	-0.0146083362123213	-0.007045699520592	0.897697681170466	-0.0028741575015319	-0.0334085638132568	-0.0017810421651047	0.889236879480682	-0.123823674784689	0.010744699520592	0.8916051811704659	-0.0146083362123213	0.007045699520592	-0.0051039345530872	-0.0270826608897516	-0.0292911608897516	-0.0056283305344808	-10	18.88670314458798	19.812170812863123	-3.123396978944777	16.688773833918347	0.07184850949102041	0.008426426629348418	0.0010044486291491293	-0.0019180582731010253	0.0075128169853965225	40.276676215107166	999.2353017365774	0.8783577228961323	0.0707809852643152	-0.026680267063793877	0.010578922766306731	0	0.00787655677024888	-0.0037937665555581716	7.005578922766307	0.8783577228961323	0.07865754203456408	-0.03047403361935205
9	13	19	59	6.995	0	420	101290	286.43	-338.6	-159.9	1589.3	1635.5	-227.2	82.6	0	1.23194272411362	984.38867652	39.9763412793298	456208.297709338	123.03	123.03	0.0	0.0	0	0	0	0	0	101290	1.4456734455218e-05	1.59907309590204	1.59907309590204	-3.10733607510593	-1.51114478302251	192.082526181642	-0.855228010639681	-1.16495087293121	-0.529166588042348	-0.0145352464185676	-0.0070687113541834	0.898508170107075	-0.0028644896855535	-0.0330302182187072	-0.0017723837555941	0.890050236846629	-0.123849832566995	0.0107677113541834	0.8924156701070749	-0.0145352464185676	0.0070687113541834	-0.0051018308187263	-0.026724915870524602	-0.0289334158705246	-0.0056194803728841	-10	18.871075872756062	19.795897094545687	-3.1077697071128583	16.68812738743283	0.07184548601764595	0.008426426629348418	0.0009945010632704167	-0.0019167842735770678	0.007504143419041767	40.27632947765845	999.2180971983495	0.8791713069104165	0.0707792253694617	-0.02632829072817709	0.010578922766306731	0	0.00787655677024888	-0.0037937665555581716	7.005578922766307	0.8791713069104165	0.07865578213971058	-0.03012205728373526
10	13	20	20	6.995	0	420	101290	286.43	-338.5	-159.9	1589.0	1634.6	-226.9	82.8	0	1.23194272411362	984.38867652	39.9763412793298	456208.297709338	123.03	123.03	0.0	0.0	0	0	0	0	0	101290	1.4456734455218e-05	1.59907309590204	1.59907309590204	-3.10641109605041	-1.50868158723743	192.016211480596	-0.862357620455941	-1.16205047417987	-0.530462185343373	-0.0145309196260421	-0.0070571892153326	0.898197968539695	-0.0028883695088598	-0.032947982301379	-0.00177672321251	0.889742871105431	-0.123807760786946	0.0107561892153326	0.892105468539695	-0.0145309196260421	0.0070571892153326	-0.0051217810516043	-0.026643899472513	-0.028852399472513	-0.0056262171240435005	-10	18.870150764618746	19.794933713293087	-3.106844598975542	16.688089114317545	0.07184530701173036	0.008426426629348418	0.0009981333085925896	-0.001916708843515876	0.007507851094425131	40.27647769695493	999.2254515763591	0.8788592405314006	0.07077852808080294	-0.02624828350569161	0.010578922766306731	0	0.00787655677024888	-0.0037937665555581716	7.005578922766307	0.8788592405314006	0.07865508485105183	-0.030042050061249784
11	13	21	6	1.005	0	420	101290	286.43	-859.6	-253.1	402.6	489.5	3.5	143.2	0	1.23194272411362	984.38867652	39.9763412793298	456208.297709338	123.03	123.03	0.0	0.0	0	0	0	0	0	101290	1.4456734455218e-05	1.59907309590204	1.59907309590204	-7.89916147739412	-2.29430780561061	54.5760455087915	-1.0860136797153	8.28071437314289	-0.928936175376409	-0.0369500613383333	-0.0107321282630996	0.255291429973245	-0.0036374802335902	0.234785697068486	-0.0031113668633385	0.254604066572718	-0.041422102014817	0.010434628263099599	0.240898429973245	-0.0369500613383333	0.0107321282630996	-0.0058077652430513	0.252301181535912	0.245200181535912	-0.0063262686496459	-10	17.0957405930457	16.549567399616148	-7.900263813659552	8.649303585956595	0.0322528703649728	0.008426426629348418	0.0006543433327985107	-0.0016552412763046701	0.007425528685842259	40.27318674825448	999.0621669227103	0.23736029098923336	0.031779163923642904	0.24859556732247132	0.004710237714755443	0	0.0015614898500773973	-0.001689164644237826	1.0097102377147553	0.23736029098923336	0.0333406537737203	0.2469064026782335
12	13	21	56	-4.0	0	420	101290	286.43	1553.3	27.9	-1017.5	-1044.9	2345.1	-36.3	0	1.23194272411362	984.38867652	39.9763412793298	456208.297709338	82.02	82.02	0.0	0.0	0	0	0	0	0	101290	1.4456734455218e-05	2.39860964385305	2.39860964385305	14.2842664758218	-0.0103009477173737	-68.9049199589733	-0.525430560529702	15.1077950500857	0.216043892958744	0.0668177912257127	-4.81849435651093e-05	-0.322317884788568	-0.0017598703531543	0.428356061103448	0.0007236146329494	-0.32619370812014	0.0441712673770216	-0.006251815056434891	-0.341917884788568	0.0668177912257127	4.81849435651093e-05	-0.00011865457884979985	0.4103232683106	0.4095232683106	-0.0017582607729229	-10	-4.704871014889697	-4.1953269016582855	14.286259860183705	10.09093295852542	0.04039596719464578	0.008426426629348418	0.0013384097741462688	0.0005547939524063272	0.010319630355901013	40.388882344313835	1004.8105633028104	-0.3349687059212417	0.03957495485793275	0.4019838104706584	-0.0013092651842144475	0	0.00012064484040083932	0.0004695228973642988	-4.001309265184214	-0.3349687059212417	0.03969559969833359	0.4024533333680227
13	13	22	21	-4.0	0	420	101290	286.43	1552.7	27.8	-1017.6	-1044.3	2344.8	-36.8	0	1.23194272411362	984.38867652	39.9763412793298	456208.297709338	82.02	82.02	0.0	0.0	0	0	0	0	0	101290	1.4456734455218e-05	2.39860964385305	2.39860964385305	14.2787482914974	-0.0180525876722516	-68.8815651061414	-0.52225059421872	15.109719061238	0.21927923463908	0.0667919787075304	-8.44449406072136e-05	-0.322208637339056	-0.0017492194149426	0.428410613196324	0.0007344510447101	-0.326082926201677	0.0441531384536797	-0.006215555059392786	-0.34180863733905603	0.0667919787075303	8.44449406072136e-05	-0.00011746876833639984	0.41038509573834503	0.409585095738345	-0.0017475334760766	-10	-4.69935206049694	-4.190435339393003	14.280740905790948	10.090305566397944	0.04039303283977609	0.008426426629348418	0.0013385164614714419	0.0005540982143531905	0.010319041305173051	40.3888587962209	1004.8093916256431	-0.33486206930145407	0.039572126285012055	0.40204485012209285	-0.0013092651842144475	0	0.00012064484040083932	0.0004695228973642988	-4.001309265184214	-0.33486206930145407	0.0396927711254129	0.40251437301945714
