run	hr	min	sec	AoA	AoS	dPb	pBar	temp	B1	B2	B3	B4	B5	B6	rpmWT	rho	q	V	Re	rpsM1	rpsM2	iM1	iM2	dPtQ	tM1	tM2	vM1	vM2	pInf	nu	J_M1	J_M2	FX	FY	FZ	MX	MY	MZ	CFX	CFY	CFZ	CMX	CMY	CMZ	CN	CT	CY	CL	CD	CYaw	CMroll	CMpitch	CMpitch25c	CMyaw	delta_e	T_0	thrust	F_meas	Drag_Force	CD_thrust_cor	TC_thrust_cor	CT_thrust_cor	epsilon_sb	epsilon_wb	epsilon_ss	epsilon_total	V_cor	q_cor	CL_cor1	CD_cor1	CMpitch_cor1	delta_alpha_total	delta_CL	delta_CDw	delta_CMpitch_total	AoA_cor	CL_cor2	CD_cor2	CMpitch_cor2
1	14	0	8	7.0	0	420	101290	286.43	1442.5	-155.8	1849.1	1925.0	-306.4	77.8	0	1.23194272411362	984.38867652	39.9763412793298	456208.297709338	98.43	98.43	0.64	0.64	0	0	0	0	0	101290	1.4456734455218e-05	1.9987195264536	1.9987195264536	13.2747399213173	-1.46092587405618	223.861184144109	-0.335150955395857	-19.4133622311448	-0.509370623752683	0.0620955092191517	-0.0068338013865925	1.04715981678166	-0.0011225502940634	-0.550433160533274	-0.0017060794077268	1.04692198523701	-0.0659840206017581	0.0105338013865925	1.04105981678166	0.0620955092191517	0.0068338013865925	-0.0033180343427176	-0.565734964125379	-0.567934964125379	-0.0053367945455739	10	2.4953955040441826	2.701860479864033	13.27659242519015	15.978452905054183	0.0685322910802817	0.0332367772654922	0.13277692830117924	0.008426426629348418	0.0008238947081288804	-0.0003197360091110136	0.008930585328366285	40.33335340624075	1002.0495209315508	1.0227114267438044	0.06732442849000693	-0.5557640425582452	0.010582728286084175	0	0.007882224603264128	-0.0037951312742518523	7.010582728286084	1.0227114267438044	0.07520665309327106	-0.5595591738324971
2	14	0	53	1.507	0	420	101290	286.43	400.3	-95.8	1000.4	1016.6	-686.8	45.0	0	1.23194272411362	984.38867652	39.9763412793298	456208.297709338	103.61	103.61	0.43	0.43	0	0	0	0	0	101290	1.4456734455218e-05	1.89879319552965	1.89879319552965	3.6877839747272	-0.925059835613591	106.837201882518	-0.712960279523638	-12.8550205999754	-0.303445197757347	0.0172504188525141	-0.0043271703921194	0.499754457998148	-0.0023879799790201	-0.364482439121909	-0.001016355437723	0.500035272758345	0.0041013701487263	0.004280670392119401	0.486064257998148	0.0172504188525141	0.0043271703921194	-0.0028810287853046996	-0.362143120880071	-0.369344520880071	-0.0041594448413603	10	5.763546650141187	5.927550603710193	3.6882986088470453	9.615849212557238	0.036723268794539445	0.07291741398703307	0.26289758185600604	0.008426426629348418	0.0006408411491654372	-0.0006709062294344059	0.008396361549079448	40.31199709412044	1000.9886412920922	0.47800357755992917	0.03611426591163106	-0.3561374952404984	0.0052802693622686055	0	0.001962301202879904	-0.0018935868758503695	1.5122802693622686	0.47800357755992917	0.03807656711451097	-0.3580310821163488
3	14	1	39	-0.002	0	420	101290	286.43	-870.8	-167.6	901.8	921.1	-1620.5	89.9	0	1.23194272411362	984.38867652	39.9763412793298	456208.297709338	123.03	123.03	0.28	0.27	0	0	0	0	0	101290	1.4456734455218e-05	1.59907309590204	1.59907309590204	-8.00479211014517	-1.52996076947796	71.9465001350256	-1.2669138813634	-12.5357634694238	-0.596328699718011	-0.0374441718044287	-0.0071567272601324	0.336545543558707	-0.0042433850394301	-0.355430441363871	-0.0019973356675538	0.336546850401838	-0.0374324241259828	0.0071549272601324	0.32034414355870705	-0.0374441718044287	0.0071567272601324	-0.0056601995774328	-0.33837789039490296	-0.344876690394903	-0.005197117130185501	10	16.849310198384977	17.16418034960995	-8.005909187276139	9.158271162333811	0.03483424570224505	0.21114415177109094	0.5399029367242231	0.008426426629348418	0.0010239108566210305	-0.0017059319387348923	0.007744405547234556	40.28593427849159	999.6947262895485	0.3154394428778386	0.034300908189920494	-0.3331970799983908	0.0035392880854712106	0	0.0008816279352427948	-0.001269243860245503	0.0015392880854712106	0.3154394428778386	0.03518253612516329	-0.33446632385863634
4	14	2	25	1.495	0	420	101290	286.43	1447.9	-70.1	778.5	812.0	225.7	35.0	0	1.23194272411362	984.38867652	39.9763412793298	456208.297709338	82.02	82.02	0.26	0.26	0	0	0	0	0	101290	1.4456734455218e-05	2.39860964385305	2.39860964385305	13.3258416127889	-0.633996483855698	103.10835762711	-0.157867890599475	-11.174994012601	-0.240248823943497	0.062334548595644	-0.0029656576883251	0.482311970671776	-0.0005287606798145	-0.316848117294602	-0.0008046863170884	0.483774084747077	0.0497299500205141	0.0029131576883251	0.468604970671776	0.062334548595644	0.0029656576883251	-0.000642181552345	-0.327218294844514	-0.334417294844514	-0.003889955625717	10	-3.882611931469901	-4.0020585436852425	13.327701247956371	9.325642704271129	0.035367153578886146	-0.049231087027343585	-0.28324260247217814	0.008426426629348418	0.0005409863145343582	0.0005274011023670436	0.00949481404624982	40.35590920602646	1003.1705954952241	0.45983148724825146	0.03470499001878396	-0.3210919315633547	0.005266762399869418	0	0.0019522748852375707	-0.0018887430686547611	1.5002667623998696	0.45983148724825146	0.036657264904021526	-0.32298067463200947
5	14	3	3	3.0	0	420	101290	286.43	-603.0	-48.0	1536.7	1507.6	-1703.5	16.0	0	1.23194272411362	984.38867652	39.9763412793298	456208.297709338	123.03	123.03	0.7	0.69	0	0	0	0	0	101290	1.4456734455218e-05	1.59907309590204	1.59907309590204	-5.55147734473966	-0.547438631514398	144.827045968018	-0.981068416306108	-16.5768765687815	-0.101978441022269	-0.0259682535916671	-0.0025607643382552	0.677460290852704	-0.0032859779197704	-0.470009391103106	-0.0003415652771225	0.675172781685255	-0.0613881971410344	0.0036607643382552003	0.666660290852704	-0.0259682535916671	0.0025607643382552	-0.0034843683400487004	-0.456090161746482	-0.462690161746482	-0.0036496229008817	10	16.084482990837884	16.675108494658264	-5.552252059223138	11.122856435435127	0.04382234219523167	0.20512786320586188	0.5245190777004172	0.008426426629348418	0.0005917342614941523	-0.0016656419823572336	0.007352518908485337	40.27026808447813	998.9173648282468	0.6569640938354967	0.0431849710040708	-0.4494565882059801	0.006908575562658776	0	0.00335915882803444	-0.002477522853237684	3.0069085755626586	0.6569640938354967	0.04654412983210524	-0.45193411105921777
6	14	3	40	4.5	0	420	101290	286.43	13.1	0.3	1727.5	1685.3	-1305.1	-5.6	0	1.23194272411362	984.38867652	39.9763412793298	456208.297709338	115.79	115.79	0.47	0.46	0	0	0	0	0	101290	1.4456734455218e-05	1.69905832100205	1.69905832100205	0.126388017799647	-0.0030927472164859	177.173780385919	-0.676538655916921	-17.6976608792662	0.028539013597641	0.0005912076900177	-1.44670038307425e-05	0.828769239816045	-0.0022659898619349	-0.501787340896186	9.5588204629978e-05	0.826260806458189	-0.0644350999290054	0.0005144670038307425	0.821419239816045	0.0005912076900177	1.44670038307425e-05	-0.0015205693337149	-0.49660397453850497	-0.501953974538505	-0.0030328532786145965	10	11.970471196144471	12.572477540708391	0.12640565538002352	12.698883196088415	0.05129352458237002	0.15465959060808224	0.446471179062948	0.008426426629348418	0.00048707009853144736	-0.0013124585603533085	0.007601038167526557	40.28020297519206	999.4103021486333	0.8090729069053821	0.05052255782147819	-0.4891397739242318	0.008420388516779887	0	0.004990197969893759	-0.0030196825371963756	4.50842038851678	0.8090729069053821	0.055512755791371944	-0.49215945646142817
7	14	4	21	-0.995	0	420	101290	286.43	962.8	-124.1	328.8	380.2	34.1	52.2	0	1.23194272411362	984.38867652	39.9763412793298	456208.297709338	89.48	89.48	0.3	0.29	0	0	0	0	0	101290	1.4456734455218e-05	2.19863615320549	2.19863615320549	8.85198608759231	-1.31267388660428	44.3637183565725	-0.538409783345625	-8.84835611409139	-0.357849232514171	0.0414071075567518	-0.0061403201803208	0.207521028550067	-0.0018033427949127	-0.250880221746939	-0.0011985756111442	0.206770696592493	0.0450044984123764	0.005244820180320801	0.19062452855006698	0.0414071075567518	0.0061403201803208	-0.0027552908352123	-0.256647937920918	-0.262550937920918	-0.0043366740782835	10	-0.14502209098668217	-0.14748481728968965	8.85322139153101	8.705736574241321	0.03291631121907703	-0.001814275777313975	-0.008770210802399947	0.008426426629348418	0.0010846558288282755	1.8218962961260797e-05	0.009529301421137955	40.35728788509481	1003.2391393072104	0.1870427697839128	0.032297826876295184	-0.2518256256589249	0.002356017959066982	0	0.0003906705804136366	-0.000844904753995401	-0.992643982040933	0.1870427697839128	0.03268849745670882	-0.2526705304129203
8	14	4	57	-4.0	0	420	101290	286.43	560.8	-120.9	-263.6	-243.2	27.1	55.5	0	1.23194272411362	984.38867652	39.9763412793298	456208.297709338	98.43	98.43	0.48	0.47	0	0	0	0	0	101290	1.4456734455218e-05	1.9987195264536	1.9987195264536	5.14935223126477	-1.22382685554223	-30.4286490902309	-0.973940616796342	-5.28956841571271	-0.386461041843666	0.0240872251241387	-0.0057247186944079	-0.142336683905538	-0.0032621041598813	-0.14997679568595	-0.001294407636861	-0.143670198784302	0.0140996447006735	-0.0005752813055920998	-0.161936683905538	0.0240872251241387	0.0057247186944079	-0.003354049631748	-0.155965851585526	-0.156765851585526	-0.0035456774918501	10	4.4313180165303585	4.476987099160823	5.150070828767069	9.627057927927892	0.03822639270470729	0.05507339262861511	0.2200115807239963	0.008426426629348418	0.0018321147091640974	-0.0005167231030007599	0.009741818235511757	40.365783529793816	1003.6615691002573	-0.15882708161548284	0.037492347302342216	-0.15297090468675126	-0.0013092651842144475	0	0.00012064484040083932	0.0004695228973642988	-4.001309265184214	-0.15882708161548284	0.03761299214274306	-0.15250138178938696
9	14	5	56	6.995	0	420	101290	286.43	1171.8	-146.7	1907.0	1970.6	-546.0	74.5	0	1.23194272411362	984.38867652	39.9763412793298	456208.297709338	103.61	103.61	0.71	0.72	0	0	0	0	0	101290	1.4456734455218e-05	1.89879319552965	1.89879319552965	10.7842640702183	-1.35760335734299	224.318711597617	-0.417505140463288	-19.8954110077937	-0.487099546713235	0.0504457618727913	-0.0063504876397968	1.04930000185313	-0.0013983863410041	-0.564100840994949	-0.0016314849490888	1.04763325665207	-0.0777163324950356	0.0100494876397968	1.04320750185313	0.0504457618727913	0.0063504876397968	-0.0034628723110004	-0.576110628717427	-0.578319128717427	-0.005280033470347	10	4.977537140075954	5.380683871512088	10.785769025575224	16.16645289708731	0.06940557959533349	0.06619016514963541	0.23864305395667626	0.008426426629348418	0.0009177867634272549	-0.0006134572020712868	0.008730756190704387	40.32536496843602	1001.6526276964722	1.0252273329992432	0.06820934199321771	-0.5661810927771107	0.010578922766306727	0	0.007876556770248875	-0.00379376655555817	7.005578922766307	1.0252273329992432	0.07608589876346658	-0.5699748593326689
10	14	6	31	4.005	0	420	101290	286.43	1721.2	-79.8	1243.7	1287.6	239.7	43.2	0	1.23194272411362	984.38867652	39.9763412793298	456208.297709338	82.02	82.02	0.78	0.74	0	0	0	0	0	101290	1.4456734455218e-05	2.39860964385305	2.39860964385305	15.840435328452	-0.689937624871104	161.096638496015	-0.0634841834476939	-14.0995980628282	-0.286719831926474	0.0740971125463421	-0.0032273346521106	0.753564880381553	-0.0002126331065158	-0.399770335069552	-0.0009603357127916	0.756899847800974	0.0212845350203259	0.0032323346521106	0.744878380381553	0.0740971125463421	0.0032273346521106	-0.00025295310244969997	-0.41476032618389796	-0.420654826183898	-0.003931997570726	10	-4.315201063358069	-4.53927252201829	15.84264587780873	11.30337335579044	0.04466763188441941	-0.055839593082646265	-0.32126350687588245	0.008426426629348418	0.00018100032752476638	0.000604035686594139	0.009211462643467323	40.34458185364685	1002.6075219677684	0.7313428504835517	0.043855955666169164	-0.4072235242798191	0.007937074052134454	0	0.004433782440348272	-0.0028463584386757587	4.012937074052134	0.7313428504835517	0.04828973810651743	-0.41006988271849487
11	14	7	23	-1.0	0	420	101290	286.43	-909.6	-262.6	653.7	733.1	-1546.8	133.2	0	1.23194272411362	984.38867652	39.9763412793298	456208.297709338	123.03	123.03	0.54	0.5	0	0	0	0	0	101290	1.4456734455218e-05	1.59907309590204	1.59907309590204	-8.37396026915223	-2.53109242537069	47.0757257609248	-1.31615100685147	-11.2080684912761	-0.882304415391811	-0.039171036884793	-0.0118397402861159	0.220207038353463	-0.0044082992334839	-0.317785888383062	-0.0029551790469512	0.220857128611209	-0.0353219282124511	0.0109397402861159	0.203307038353463	-0.039171036884793	0.0118397402861159	-0.006995760506329	-0.300845415365324	-0.306745415365324	-0.006018674178024401	10	17.083180007231853	17.332658834851742	-8.375128864086822	8.95752997076492	0.03409496574626485	0.21321667991595308	0.5452024632442272	0.008426426629348418	0.0012163238389260827	-0.0017197281366337002	0.0079230223316408	40.29307472402323	1000.0491377473962	0.2001233128031737	0.03356104909260773	-0.29613426889768046	0.002350002771025368	0	0.00038867827204635636	-0.0008427476138288853	-0.9976499972289746	0.2001233128031737	0.033949727364654084	-0.2969770165115094
12	14	8	7	6.995	0	420	101290	286.43	2215.1	-213.2	1664.1	1787.7	377.7	121.6	0	1.23194272411362	984.38867652	39.9763412793298	456208.297709338	82.02	82.02	0.36	0.33	0	0	0	0	0	101290	1.4456734455218e-05	2.39860964385305	2.39860964385305	20.3828380696984	-1.83347275103239	220.910767774223	0.0210860254689268	-18.0343517987726	-0.796578034600929	0.0953451982314874	-0.0085764711617414	1.03335859672141	7.06252621682517e-05	-0.511333644351516	-0.0026680482110801	1.0372784826568	-0.0312097045974019	0.012275471161741401	1.02726609672141	0.0953451982314874	0.0085764711617414	-0.0025012895675442	-0.5359984714871141	-0.538206971487114	-0.0061917771983266	10	-4.622376350468661	-5.032693102267535	20.38568251611984	15.352989413852304	0.06560095657121899	-0.06190937723551982	-0.356184967353678	0.008426426629348418	0.0005725910334423475	0.0006758108945371061	0.009674828557327871	40.36310552755654	1003.5284009299227	1.0076736367883525	0.06434978696940508	-0.5257756785707435	0.010578922766306727	0	0.007876556770248875	-0.00379376655555817	7.005578922766307	1.0076736367883525	0.07222634373965395	-0.5295694451263017
13	14	8	29	6.995	0	420	101290	286.43	2214.6	-211.8	1664.5	1787.2	376.5	120.7	0	1.23194272411362	984.38867652	39.9763412793298	456208.297709338	82.02	82.02	2.83	2.51	0	0	0	0	0	101290	1.4456734455218e-05	2.39860964385305	2.39860964385305	20.3782411065109	-1.82223790844083	220.875051979465	0.0183831699006	-18.0450441619338	-0.790702893971995	0.0953236949273414	-0.0085239177199523	1.03319152825335	6.15723525339872e-05	-0.511636808284602	-0.0026483700907153	1.03711003898458	-0.0312107017941598	0.012222917719952299	1.0270990282533499	0.0953236949273414	0.0085239177199523	-0.0024979694574913	-0.536295574650097	-0.538504074650097	-0.006171841214426399	10	-4.617778745770165	-5.0276652340821935	20.381084911421343	15.35341967733915	0.06560296894227464	-0.061847527211715166	-0.3558291238660933	0.008426426629348418	0.0005744792166697957	0.0006750726230189603	0.009675978469037174	40.363151496819484	1003.530686754395	1.0075074598339036	0.06435161438035177	-0.5260659169882926	0.010578922766306727	0	0.007876556770248875	-0.00379376655555817	7.005578922766307	1.0075074598339036	0.07222817115060064	-0.5298596835438508
14	14	8	50	6.995	0	420	101290	286.43	2215.3	-212.7	1662.7	1786.1	377.0	121.0	0	1.23194272411362	984.38867652	39.9763412793298	456208.297709338	82.02	82.02	4.73	4.5	0	0	0	0	0	101290	1.4456734455218e-05	2.39860964385305	2.39860964385305	20.3847002121964	-1.83288565699547	220.709365550279	0.018439825176817	-18.0453411937556	-0.792676340968257	0.0953539088116821	-0.0085737249005417	1.03241649361975	6.17621129865644e-05	-0.511645230121196	-0.0026549799286713	1.0363444526312	-0.0310863269671575	0.012272724900541699	1.02632399361975	0.0953539088116821	0.0085737249005417	-0.002510909956942	-0.536312512359677	-0.538521012359677	-0.0061799777832352	10	-4.624238752830541	-5.034729809986584	20.38754491848172	15.352815108495136	0.06560014133342557	-0.06193443167534654	-0.3563291137694592	0.008426426629348418	0.0005816325485070922	0.0006761099973009465	0.009684169175156456	40.363478931282614	1003.5469685288488	1.0067308750293171	0.0643477966969509	-0.5260739963340162	0.010578922766306727	0	0.007876556770248875	-0.00379376655555817	7.005578922766307	1.0067308750293171	0.07222435346719977	-0.5298677628895744
15	14	9	12	6.995	0	420	101290	286.43	2214.4	-209.9	1664.1	1785.0	377.5	120.1	0	1.23194272411362	984.38867652	39.9763412793298	456208.297709338	82.02	82.02	7.77	7.62	0	0	0	0	0	101290	1.4456734455218e-05	2.39860964385305	2.39860964385305	20.3764060903615	-1.79932802158364	220.739955352138	0.0133108451086089	-18.0301766154363	-0.786757125295455	0.0953151112365948	-0.0084167516964383	1.0325595841311	4.45831731950547e-05	-0.511215264066212	-0.0026351541839221	1.03648175321432	-0.031142261716146	0.0121157516964383	1.0264670841310999	0.0953151112365948	0.0084167516964383	-0.0024864614128509	-0.5358716110929911	-0.538080111092991	-0.0061573221954376	10	-4.615943473542275	-5.025658222767154	20.379249639193453	15.3535914164263	0.06560377217745185	-0.06182283808045009	-0.3556870791903701	0.008426426629348418	0.0005807218943578609	0.0006747779619074582	0.009681926485613737	40.36338927676008	1003.5425104183604	1.0068757067579728	0.06435164409882273	-0.5256438472233339	0.010578922766306727	0	0.007876556770248875	-0.00379376655555817	7.005578922766307	1.0068757067579728	0.0722282008690716	-0.5294376137788921
16	14	9	33	6.995	0	420	101290	286.43	2214.7	-210.0	1664.8	1785.2	377.2	120.9	0	1.23194272411362	984.38867652	39.9763412793298	456208.297709338	82.02	82.02	7.43	7.73	0	0	0	0	0	101290	1.4456734455218e-05	2.39860964385305	2.39860964385305	20.3791565586293	-1.79107455274013	220.787787066971	0.0139253338581718	-18.0369678168521	-0.791939795371551	0.0953279771555275	-0.0083781442846397	1.03278332747424	4.66413338997011e-05	-0.511407817134281	-0.0026525129523346	1.0367053980339	-0.0311567396355052	0.012077144284639699	1.02669082747424	0.0953279771555275	0.0083781442846397	-0.0024715039539269	-0.5360677904585021	-0.538276290458502	-0.0061727301986335	10	-4.618694325640808	-5.028666493965087	20.38200049129199	15.353333997326903	0.0656025682111367	-0.06185984415108366	-0.3558999872609902	0.008426426629348418	0.0005783909125586287	0.000675219632431901	0.009680037174338949	40.36331374900777	1003.5387547754076	1.0070989486387871	0.06435070393681663	-0.5258382501556154	0.010578922766306727	0	0.007876556770248875	-0.00379376655555817	7.005578922766307	1.0070989486387871	0.0722272607070655	-0.5296320167111735
17	14	10	22	-3.995	0	420	101290	286.43	-42.5	-190.5	-175.1	-130.8	-469.6	97.8	0	1.23194272411362	984.38867652	39.9763412793298	456208.297709338	109.36	109.36	4.57	4.49	0	0	0	0	0	101290	1.4456734455218e-05	1.79895723288979	1.79895723288979	-0.400882605081458	-1.81502794959705	-30.3158727113104	-1.19374356344827	-5.88772622689906	-0.661150825463281	-0.0018752163618406	-0.0084901915551832	-0.14180914764355	-0.0039983093188632	-0.166936552094387	-0.0022144500607717	-0.141333925162103	-0.011750420846369	0.0021986915551832006	-0.16140464764354998	-0.0018752163618406	0.0084901915551832	-0.0049320444693357005	-0.16560001679657899	-0.166408016796579	-0.0043551248354616	10	9.979273447732895	10.073113433669775	-0.4009385486692633	9.672174885000512	0.03843590772528798	0.12391381052428284	0.4010157131519827	0.008426426629348418	0.0018605328736446174	-0.001082385181062575	0.00920457432193046	40.34430648375425	1002.5938355211256	-0.15847385237056272	0.037737986207420526	-0.16259304175887213	-0.0013031492260756105	0	0.00011952033877043938	0.00046732961947061646	-3.9963031492260757	-0.15847385237056272	0.03785750654619097	-0.1621257121394015
18	14	11	17	-0.505	0	420	101290	286.43	264.8	-173.4	554.3	611.6	-597.4	88.1	0	1.23194272411362	984.38867652	39.9763412793298	456208.297709338	103.61	103.61	2.14	2.09	0	0	0	0	0	101290	1.4456734455218e-05	1.89879319552965	1.89879319552965	2.43300244497927	-1.64842907535441	56.8296845403585	-0.778878631821631	-10.2742181481868	-0.589528333877701	0.011380902876283	-0.0077108887595916	0.265833321120701	-0.002608766059337	-0.291308136116784	-0.0019745586097807	0.265722686563238	0.0137234621708995	0.0072563887595916	0.24927982112070102	0.011380902876283	0.0077108887595916	-0.0040983205586831994	-0.288318877374506	-0.294515877374506	-0.0051321816685836	10	6.315265760558364	6.428385113493964	2.4333419730211507	8.861727086515115	0.03354788926009751	0.07907840015660496	0.28511049749940476	0.008426426629348418	0.0010458515524235936	-0.0007228264162307136	0.008749451765541297	40.326112349116116	1001.689756821529	0.24497428622490147	0.03296845363935454	-0.2833390639982255	0.0029429090117814305	0	0.0006095469806123351	-0.0010553730310335666	-0.5020570909882186	0.24497428622490147	0.03357800061996688	-0.2843944370292591
19	14	12	4	-3.995	0	420	101290	286.43	1000.4	-72.2	-333.6	-326.6	397.4	25.2	0	1.23194272411362	984.38867652	39.9763412793298	456208.297709338	89.48	89.48	7.64	7.76	0	0	0	0	0	101290	1.4456734455218e-05	2.19863615320549	2.19863615320549	9.19359826775637	-0.818685190349725	-30.7349823864925	-0.776281440356422	-4.74528782772682	-0.189734821220439	0.0430050734987201	-0.0038295796442164	-0.143769625125848	-0.002600067059689	-0.134544637119344	-0.0006354953668668	-0.146416422692292	0.0328842305892832	-0.0024619203557836003	-0.163365125125848	0.0430050734987201	0.0038295796442164	-0.0021167794832476	-0.145857744737324	-0.146665744737324	-0.0029761446676812	10	0.38345365503068507	0.3877174377495419	9.194881244032947	9.582598681782489	0.03801695384204699	0.004769483182594741	0.02305568616022942	0.008426426629348418	0.001802322695913937	-4.74968353058124e-05	0.010181252489956542	40.38335050351933	1004.5353355130292	-0.16008872324040999	0.037254497233571104	-0.1429324656148983	-0.0013031492260756105	0	0.00011952033877043938	0.00046732961947061646	-3.9963031492260757	-0.16008872324040999	0.037374017572341545	-0.14246513599542768
20	14	12	40	-0.505	0	420	101290	286.43	1321.4	-120.4	354.6	417.6	305.9	52.0	0	1.23194272411362	984.38867652	39.9763412793298	456208.297709338	82.02	82.02	4.38	4.37	0	0	0	0	0	101290	1.4456734455218e-05	2.39860964385305	2.39860964385305	12.153748174306	-1.24356488978965	54.8874349601819	-0.290441931509963	-8.79814729830661	-0.356527687566401	0.0568518243128019	-0.0058170476812538	0.256748022468779	-0.0009728024652048	-0.249456635413464	-0.0011941492455144	0.25623696926109	0.0591125414206971	0.0053625476812537995	0.24019452246877898	0.0568518243128019	0.0058170476812538	-0.0019217781421153	-0.259283490849834	-0.265480490849834	-0.004370986223708601	10	-3.406836509025865	-3.4738243858914077	12.155444242605382	8.681619856713974	0.03270551572098569	-0.042733045704535504	-0.24585723793164574	0.008426426629348418	0.0009558940066880137	0.00045351916402092867	0.00983583980005736	40.36954216794571	1003.8484886131636	0.2355383016086898	0.03207151248488016	-0.2542572263606899	0.0029429090117814305	0	0.0006095469806123351	-0.0010553730310335666	-0.5020570909882186	0.2355383016086898	0.0326810594654925	-0.2553125993917235
21	14	13	20	-0.995	0	420	101290	286.43	767.6	-155.4	356.4	417.2	-124.3	73.2	0	1.23194272411362	984.38867652	39.9763412793298	456208.297709338	93.74	93.74	2.19	2.12	0	0	0	0	0	101290	1.4456734455218e-05	2.09871946862415	2.09871946862415	7.05617898239799	-1.5539034799887	44.4324401312455	-0.635117389584768	-9.01141874594084	-0.494379693133641	0.033006825719415	-0.0072687245429465	0.207842489732588	-0.0021272540058884	-0.255503587794772	-0.0016558689777585	0.207237981484307	0.0366110654396029	0.0063732245429465005	0.190945989732588	0.033006825719415	0.0072687245429465	-0.0034050903369697997	-0.258903659598261	-0.264806659598261	-0.0047826146237276	10	1.651035620971828	1.678545936238865	7.0571636795725	8.735709615811365	0.03305649713572891	0.020648533789381956	0.09094901526921916	0.008426426629348418	0.0011025459848670416	-0.0002016397942945199	0.00932733281992094	40.34921391936486	1002.8377591059824	0.18743317990662056	0.03244836083439535	-0.254140640900202	0.002356017959066982	0	0.0003906705804136366	-0.000844904753995401	-0.992643982040933	0.18743317990662056	0.03283903141480898	-0.2549855456541974
22	14	15	12	-4.0	0	420	101290	286.43	-884.3	-304.8	-53.2	37.0	-1162.0	164.7	0	1.23194272411362	984.38867652	39.9763412793298	456208.297709338	123.03	123.03	2.18	2.11	0	0	0	0	0	101290	1.4456734455218e-05	1.59907309590204	1.59907309590204	-8.14528336643401	-2.81694942486173	-29.5658659682708	-1.48374381982093	-6.7136145178895	-1.09589862735209	-0.0381013504875369	-0.0131768991346106	-0.138300826508606	-0.0049696324430509	-0.1903532223674	-0.0036705887499104	-0.135306116791306	-0.0476559154858548	0.006876899134610599	-0.157900826508606	-0.0381013504875368	0.0131768991346106	-0.007318475139162701	-0.178814243635889	-0.179614243635889	-0.0056395260033162	10	17.727808894564507	17.876858289486442	-8.146420049267078	9.730438240219364	0.038709909327752375	0.21991111739579147	0.5623203726192398	0.008426426629348418	0.0019019245808068077	-0.001764005029734606	0.00856434618042062	40.31871250507262	1001.3221702893521	-0.15523054441439613	0.03805528084966299	-0.17579029193450527	-0.0013092651842144475	0	0.00012064484040083932	0.0004695228973642988	-4.001309265184214	-0.15523054441439613	0.03817592569006383	-0.17532076903714097
23	14	15	32	-4.0	0	420	101290	286.43	-884.7	-305.1	-53.0	36.8	-1161.8	165.5	0	1.23194272411362	984.38867652	39.9763412793298	456208.297709338	123.03	123.03	4.43	4.34	0	0	0	0	0	101290	1.4456734455218e-05	1.59907309590204	1.59907309590204	-8.1489687442232	-2.81188286512765	-29.5609682880032	-1.48489378347092	-6.70716687564013	-1.10108795143683	-0.0381185896509285	-0.0131531991895614	-0.138277916534323	-0.0049734841164914	-0.190170410340351	-0.0036879698051738	-0.135282060081321	-0.0476715145364913	0.0068531991895614	-0.157877916534323	-0.0381185896509285	0.0131531991895614	-0.0073168662432849	-0.178626572699467	-0.179426572699467	-0.005656976950105599	10	17.73149478665205	17.88056746818073	-8.150105941354623	9.730461526826106	0.0387100182407669	0.21995674563863327	0.5624370456224995	0.008426426629348418	0.0019019731416198798	-0.0017643053311972273	0.008564094439771072	40.3187024414025	1001.3216704234527	-0.15520809935456	0.038055406918317186	-0.1756058823899927	-0.0013092651842144475	0	0.00012064484040083932	0.0004695228973642988	-4.001309265184214	-0.15520809935456	0.03817605175871803	-0.1751363594926284
24	14	15	50	-4.0	0	420	101290	286.43	-885.1	-304.4	-52.6	36.6	-1162.8	165.0	0	1.23194272411362	984.38867652	39.9763412793298	456208.297709338	123.03	123.03	7.98	7.86	0	0	0	0	0	101290	1.4456734455218e-05	1.59907309590204	1.59907309590204	-8.15264684310623	-2.80688370351389	-29.5733291430201	-1.48929807791228	-6.71625037078629	-1.09782680890442	-0.0381357947656391	-0.0131298145140111	-0.138335737146343	-0.0049882358035765	-0.190427957532973	-0.0036770469763715	-0.135338539677104	-0.0476927111024114	0.006829814514011099	-0.157935737146343	-0.0381357947656391	0.0131298145140111	-0.007324245073207	-0.178879270579438	-0.179679270579438	-0.005645566007609499	10	17.73517339881763	17.884269318403806	-8.1537845535202	9.730484764883606	0.03871012692671338	0.22000228373071892	0.5625534881071416	0.008426426629348418	0.001901901109711192	-0.0017646050194752142	0.008563722719584397	40.31868758138946	1001.3209323218058	-0.15526505663294574	0.03805554181809724	-0.1758544366133005	-0.0013092651842144475	0	0.00012064484040083932	0.0004695228973642988	-4.001309265184214	-0.15526505663294574	0.03817618665849808	-0.1753849137159362
25	14	16	12	-4.0	0	420	101290	286.43	-885.8	-302.3	-51.9	36.4	-1163.0	164.0	0	1.23194272411362	984.38867652	39.9763412793298	456208.297709338	123.03	123.03	0.64	0.64	0	0	0	0	0	101290	1.4456734455218e-05	1.59907309590204	1.59907309590204	-8.15909520269594	-2.78571525850967	-29.5476058938864	-1.48157399451652	-6.71207708869735	-1.09128564499952	-0.0381659583827588	-0.0130307944669363	-0.138215411003368	-0.0049623648581184	-0.190309631154335	-0.0036551380862229	-0.135216402535	-0.0477144077150427	0.0067307944669363	-0.15781541100336802	-0.0381659583827588	0.0130307944669363	-0.0072690677521119	-0.178752442495779	-0.179552442495779	-0.0056275594617664	10	17.741622658282658	17.890759312142062	-8.160233812985233	9.73052549915683	0.038710317443628975	0.22008212000573774	0.5627576322379556	0.008426426629348418	0.0019021058760299412	-0.0017651303778013871	0.008563402127576971	40.318674765293956	1001.3202957424212	-0.15514686382830278	0.038055753306937216	-0.17572986490069267	-0.0013092651842144475	0	0.00012064484040083932	0.0004695228973642988	-4.001309265184214	-0.15514686382830278	0.03817639814733806	-0.17526034200332838
26	14	16	34	-4.0	0	420	101290	286.43	-884.7	-304.7	-53.1	36.3	-1162.1	165.5	0	1.23194272411362	984.38867652	39.9763412793298	456208.297709338	123.03	123.03	0.43	0.43	0	0	0	0	0	101290	1.4456734455218e-05	1.59907309590204	1.59907309590204	-8.14896656307965	-2.80550532805733	-29.6052083345473	-1.48465863686086	-6.71105828508854	-1.10107520126195	-0.0381185794481508	-0.0131233668603186	-0.138484859060829	-0.0049726965194638	-0.190280744695427	-0.0036879270999023	-0.135488499217944	-0.0476859399394839	0.0068233668603186	-0.158084859060829	-0.0381185794481508	0.0131233668603186	-0.0073076897375568	-0.178736909930226	-0.179536909930226	-0.0056575744695428	10	17.731492605204103	17.88056527295166	-8.150103759906676	9.730461513044984	0.03871001817631167	0.21995671863415242	0.5624369765711031	0.008426426629348418	0.0019016639301808642	-0.001764305153473611	0.00856378540605567	40.318690087365226	1001.3210567944121	-0.15541163758897256	0.03805543017604625	-0.17571446142834324	-0.0013092651842144475	0	0.00012064484040083932	0.0004695228973642988	-4.001309265184214	-0.15541163758897256	0.03817607501644709	-0.17524493853097894
27	14	17	22	4.995	0	420	101290	286.43	1510.4	-117.8	1455.8	1521.6	-14.1	58.0	0	1.23194272411362	984.38867652	39.9763412793298	456208.297709338	89.48	89.48	0.28	0.27	0	0	0	0	0	101290	1.4456734455218e-05	2.19863615320549	2.19863615320549	13.8992998905272	-1.10453917841426	182.16699028537	-0.135437210825326	-15.6050120769356	-0.383788295681904	0.0650170255393102	-0.0051667244061027	0.852126074916564	-0.0004536316498323	-0.44245381173012	-0.0012854555752853	0.854550910698367	-0.0094234912469319	0.0061617244061027004	0.846112574916564	0.0650170255393102	0.0051667244061027	-0.0010902119929072	-0.455973553369025	-0.460779053369025	-0.0044359889594843	10	-1.1826243009454558	-1.2543888329697328	13.901239552398549	12.646850719428816	0.05114916521494821	-0.01543079021157813	-0.0745924542979387	0.008426426629348418	0.0002733294533758063	0.00015772762340238427	0.008857483706126608	40.330431070842025	1001.9043200764887	0.8313205374196402	0.050254957526484914	-0.4480020634054048	0.008886912536689015	0	0.005558470773196195	-0.0031869853205887242	5.003886912536689	0.8313205374196402	0.05581342829968111	-0.4511890487259935
28	14	18	5	2.005	0	420	101290	286.43	431.6	-181.4	1065.1	1133.9	-690.5	90.4	0	1.23194272411362	984.38867652	39.9763412793298	456208.297709338	103.61	103.61	0.26	0.26	0	0	0	0	0	101290	1.4456734455218e-05	1.89879319552965	1.89879319552965	3.97673914291615	-1.73446367686702	117.85247495226	-0.720147591677829	-13.2815470041133	-0.597524808367844	0.0186020700650086	-0.0081133344890791	0.551280815162798	-0.0024120530697941	-0.376575876306318	-0.0020013418984626	0.55159413395946	-0.0006968204758435	0.0083178344890791	0.538291815162798	0.0186020700650086	0.0081133344890791	-0.0040264233871952	-0.37452242497084104	-0.381818924970841	-0.0051624624716752	10	5.7820317811404	5.965433899476778	3.977294101032635	9.942728000509414	0.03820330271071193	0.07338343311454187	0.2645777744879403	0.008426426629348418	0.0005828500064169737	-0.0006748563918307578	0.008334420243934633	40.30952090736669	1000.8656725052725	0.5294300544680373	0.03757437149378558	-0.3683567579266388	0.00583528172059612	0	0.0023964985513391817	-0.002092622956315062	2.010835281720596	0.5294300544680373	0.03997087004512476	-0.37044938088295387
29	14	18	43	6.995	0	420	101290	286.43	64.9	-69.2	2172.1	2165.3	-1519.9	28.7	0	1.23194272411362	984.38867652	39.9763412793298	456208.297709338	123.03	123.03	0.7	0.69	0	0	0	0	0	101290	1.4456734455218e-05	1.59907309590204	1.59907309590204	0.600409954973968	-0.690604557942096	228.578059627886	-0.8214147921198	-21.7913388331947	-0.185619758951046	0.0028085493286754	-0.0032304543779134	1.06922403700929	-0.0027512361268761	-0.617856678477045	-0.0006217124302938	1.06160760324252	-0.127425374260565	0.0069294543779134	1.06313153700929	0.0028085493286754	0.0032304543779134	-0.0040557802525165	-0.616439776441976	-0.618648276441976	-0.0043499828535098	10	15.162812422838545	16.30819455875415	0.6004937428126319	16.90868830156678	0.07287706413937872	0.2006142930736751	0.5129777219534661	0.008426426629348418	0.0011767166554009607	-0.0016351761641051148	0.007967967120644263	40.29487145224716	1000.1383270974162	1.0463899026052554	0.07172943459233971	-0.6067324081530733	0.010578922766306727	0	0.007876556770248875	-0.00379376655555817	7.005578922766307	1.0463899026052554	0.07960599136258859	-0.6105261747086315
30	14	19	4	6.995	0	420	101290	286.43	64.3	-68.6	2172.0	2164.9	-1519.6	28.6	0	1.23194272411362	984.38867652	39.9763412793298	456208.297709338	123.03	123.03	0.64	0.64	0	0	0	0	0	101290	1.4456734455218e-05	1.59907309590204	1.59907309590204	0.594888161581338	-0.68226764609569	228.554731926435	-0.817519686252932	-21.7816556430377	-0.184953513791825	0.0027827199282841	-0.0031914566431565	1.06911491656632	-0.0027381899094452	-0.617582127943308	-0.0006194809173372	1.06149614943188	-0.127437722422013	0.0068904566431565	1.06302241656632	0.002782719928284	0.0031914566431565	-0.0040321930864154	-0.6161579458150691	-0.618366445815069	-0.0043448954407796	10	15.16833498680325	16.314096690707157	0.5949711788479274	16.909067869555084	0.07287883940420288	0.20068689780163038	0.5131633747670264	0.008426426629348418	0.0011780476872377949	-0.001635667877430579	0.007968806439155634	40.29490500513041	1000.1399926959048	1.0462807580908136	0.07173106244260545	-0.6064540056769808	0.010578922766306727	0	0.007876556770248875	-0.00379376655555817	7.005578922766307	1.0462807580908136	0.07960761921285432	-0.610247772232539
31	14	19	24	6.995	0	420	101290	286.43	62.4	-67.0	2172.5	2164.3	-1520.7	27.2	0	1.23194272411362	984.38867652	39.9763412793298	456208.297709338	123.03	123.03	0.43	0.43	0	0	0	0	0	101290	1.4456734455218e-05	1.59907309590204	1.59907309590204	0.577412510806783	-0.674003455404189	228.521479159144	-0.82656633519803	-21.7775250392579	-0.175835164617444	0.0027009737366288	-0.0031527990775609	1.06895936944976	-0.0027684906389228	-0.617465011636182	-0.000588940036035	1.06133180481212	-0.127499917206998	0.0068517990775609	1.06286686944976	0.0027009737366288	0.0031527990775609	-0.0040551729826141004	-0.6160177891011771	-0.618226289101177	-0.0043173804363093	10	15.185813076323175	16.33277591800419	0.5774930893280039	16.910269007332197	0.07288445720578356	0.20091667921402748	0.5137509338271151	0.008426426629348418	0.0011803515865563066	-0.001637223709024733	0.007969554506879991	40.29493491014106	1000.1414772115393	1.0461261079299367	0.07173648528977543	-0.60631515634845	0.010578922766306727	0	0.007876556770248875	-0.00379376655555817	7.005578922766307	1.0461261079299367	0.0796130420600243	-0.6101089229040082
32	14	19	42	6.995	0	420	101290	286.43	63.1	-67.9	2171.9	2164.4	-1520.9	27.6	0	1.23194272411362	984.38867652	39.9763412793298	456208.297709338	123.03	123.03	0.28	0.27	0	0	0	0	0	101290	1.4456734455218e-05	1.59907309590204	1.59907309590204	0.5838591273636	-0.68342575370122	228.485896705875	-0.825165447297513	-21.7868809748832	-0.17845351424612	0.0027311292003297	-0.0031968739456364	1.06879292471577	-0.0027637985230289	-0.617730283419333	-0.0005977099025632	1.06117027137701	-0.127449716103366	0.0068958739456364	1.0627004247157699	0.0027311292003297	0.0031968739456364	-0.0040617779409422	-0.6162915602912831	-0.618500060291283	-0.0043268893966541995	10	15.179365560134258	16.32588533690742	0.58394060551692	16.909825942424337	0.0728823849616271	0.20083191513725518	0.5135341891358972	0.008426426629348418	0.0011817515846652717	-0.001636649841206807	0.007971528372806881	40.295013818078985	1000.145394288415	1.0459581882767022	0.0717341647361604	-0.6065822397924621	0.010578922766306727	0	0.007876556770248875	-0.00379376655555817	7.005578922766307	1.0459581882767022	0.07961072150640927	-0.6103760063480203
33	14	20	1	6.995	0	420	101290	286.43	63.5	-68.0	2171.6	2163.9	-1520.1	27.9	0	1.23194272411362	984.38867652	39.9763412793298	456208.297709338	123.03	123.03	0.26	0.26	0	0	0	0	0	101290	1.4456734455218e-05	1.59907309590204	1.59907309590204	0.587539717520798	-0.681322769912416	228.456460339241	-0.826221647377322	-21.7804026162977	-0.180400734098485	0.002748345968522	-0.0031870367774494	1.06865522965081	-0.0027673361459748	-0.61754660048235	-0.0006042318956612	1.06103569791129	-0.127415858602819	0.0068860367774494	1.06256272965081	0.0027483459685219	0.0031870367774494	-0.0040617429687594	-0.61611272995152	-0.61832122995152	-0.0043333585861343	10	15.175684456346863	16.3219512596557	0.5876217093043146	16.909572968960017	0.07288120178784403	0.20078352031807964	0.5134104419007692	0.008426426629348418	0.0011829795456466284	-0.0016363221666948163	0.00797308400830023	40.29507600669438	1000.1484814051258	1.0458194344213088	0.07173277878733492	-0.6064043550533882	0.010578922766306727	0	0.007876556770248875	-0.00379376655555817	7.005578922766307	1.0458194344213088	0.07960933555758379	-0.6101981216089464
34	14	20	45	-3.995	0	420	101290	286.43	1338.2	-24.6	-387.2	-393.5	680.5	-5.5	0	1.23194272411362	984.38867652	39.9763412793298	456208.297709338	82.02	82.02	0.7	0.69	0	0	0	0	0	101290	1.4456734455218e-05	2.39860964385305	2.39860964385305	12.3013161065163	-0.436407762080044	-31.1672221507133	-0.598352785048413	-4.34575125394945	0.009798370259837	0.0575421057005602	-0.0020413930799528	-0.145791521481117	-0.0020041151128941	-0.123216451077459	3.28185351688194e-05	-0.149446192706176	0.047245075403282	-0.0042501069200472	-0.16538702148111697	0.0575421057005602	0.0020413930799528	-0.0009729335535805998	-0.138626864371938	-0.139434864371938	-0.0023891457609891	10	-2.724697869011722	-2.756959166385581	12.303032768075354	9.546073601689773	0.03784612360376052	-0.0339145705065518	-0.195121655686103	0.008426426629348418	0.001776671654491367	0.00035547922425460877	0.010558577508094394	40.398434577217635	1005.2859079513457	-0.16194906334771883	0.03705940293308205	-0.13574517902802846	-0.0013031492260756105	0	0.00011952033877043938	0.00046732961947061646	-3.9963031492260757	-0.16194906334771883	0.03717892327185249	-0.13527784940855783
35	14	21	13	-3.995	0	420	101290	286.43	1339.3	-25.9	-386.2	-392.3	680.9	-4.5	0	1.23194272411362	984.38867652	39.9763412793298	456208.297709338	82.02	82.02	0.47	0.46	0	0	0	0	0	101290	1.4456734455218e-05	2.39860964385305	2.39860964385305	12.3114232519622	-0.444825071323136	-31.0223170684566	-0.603939467308831	-4.3512073682567	0.0032804717423622	0.0575893840914689	-0.0020807668911764	-0.145113696158398	-0.0020228270745141	-0.123371150001149	1.09875698092698e-05	-0.148773308266311	0.0473394626108486	-0.004210733108823601	-0.164709196158398	0.0575893840914689	0.0020807668911764	-0.0010041916581469	-0.138794888850443	-0.139602888850443	-0.0024087459460224	10	-2.7348064249203023	-2.7671942689592566	12.313141323983935	9.545947055024678	0.037845531736558656	-0.034040477016923434	-0.19584603716575721	0.008426426629348418	0.0017776517476202594	0.00035686154824799164	0.010560939925216669	40.39852901801076	1005.2906081388869	-0.16128457413643532	0.037058650102498196	-0.13590907528338522	-0.0013031492260756105	0	0.00011952033877043938	0.00046732961947061646	-3.9963031492260757	-0.16128457413643532	0.037178170441268636	-0.1354417456639146
36	14	21	35	-3.995	0	420	101290	286.43	1339.8	-26.4	-385.8	-392.8	680.9	-4.1	0	1.23194272411362	984.38867652	39.9763412793298	456208.297709338	82.02	82.02	0.3	0.29	0	0	0	0	0	101290	1.4456734455218e-05	2.39860964385305	2.39860964385305	12.3160253191118	-0.4478767188685	-31.0285005285093	-0.621678471225317	-4.35605626784585	0.0006740690779112	0.0576109112705183	-0.0020950416422759	-0.1451426206498	-0.0020822418657962	-0.123508632375103	2.25771828916505e-06	-0.14880366226114	0.0473589223292066	-0.0041964583577241005	-0.16473812064979998	0.0576109112705183	0.0020950416422759	-0.0010680838878201998	-0.138938438723711	-0.139746438723711	-0.0024130032506141	10	-2.7394091342932843	-2.771854616419726	12.317744033356915	9.54588941693719	0.037845262159375115	-0.03409780600621722	-0.19617586965789077	0.008426426629348418	0.0017775711675517155	0.00035749112601827344	0.010561488922918407	40.39855096493025	1005.2917004082624	-0.16131272196218346	0.0370583458656728	-0.13604949265715124	-0.0013031492260756105	0	0.00011952033877043938	0.00046732961947061646	-3.9963031492260757	-0.16131272196218346	0.03717786620444324	-0.13558216303768061
37	14	21	55	-3.995	0	420	101290	286.43	1337.9	-26.5	-385.0	-391.9	680.1	-4.3	0	1.23194272411362	984.38867652	39.9763412793298	456208.297709338	82.02	82.02	0.48	0.47	0	0	0	0	0	101290	1.4456734455218e-05	2.39860964385305	2.39860964385305	12.2985386377996	-0.45194139933319	-30.9438108834809	-0.624280002154733	-4.3480468470484	0.0019690389966538	0.0575291134811021	-0.0021140550771728	-0.144746466249427	-0.0020909553999897	-0.123281538750048	6.59507385889859e-06	-0.148402771658418	0.0473049231446122	-0.004177444922827201	-0.16434196624942699	0.0575291134811021	0.0021140550771728	-0.0010818200396745998	-0.138688290148907	-0.139496290148907	-0.0024077194445107	10	-2.7219200126963	-2.7541465441578104	12.30025491175993	9.54610836760212	0.037846286206253806	-0.0338799712001801	-0.19492259452023827	0.008426426629348418	0.0017783225780578769	0.00035509944634141624	0.01055984865374771	40.398485392970095	1005.2884369796366	-0.1609253272016347	0.03705946892386863	-0.13580498627705767	-0.0013031492260756105	0	0.00011952033877043938	0.00046732961947061646	-3.9963031492260757	-0.1609253272016347	0.03717898926263907	-0.13533765665758704
38	14	22	16	-3.995	0	420	101290	286.43	1339.1	-27.6	-385.7	-392.0	681.0	-3.7	0	1.23194272411362	984.38867652	39.9763412793298	456208.297709338	82.02	82.02	0.71	0.72	0	0	0	0	0	101290	1.4456734455218e-05	2.39860964385305	2.39860964385305	12.3095833713896	-0.462086650058184	-30.9707451360456	-0.625288630430627	-4.34799577822059	-0.0019534097872495	0.0575807776463158	-0.0021615117138873	-0.144872457126714	-0.0020943336865483	-0.123280090779523	-6.54272558618651e-06	-0.148532055807142	0.0473476840615257	-0.004129988286112701	-0.164467957126714	0.0575807776463158	0.0021615117138873	-0.0010994487128463998	-0.138701403876704	-0.139509403876704	-0.0024195971414337	10	-2.7329662875904965	-2.7653310913698537	12.311301186654129	9.545970095284275	0.037845639497391136	-0.03401755724774714	-0.1957141722108772	0.008426426629348418	0.0017780414675085312	0.000356609875813349	0.010561077972670299	40.398534536642885	1005.2908827939082	-0.16104830692979122	0.03705874549797086	-0.13581749693600426	-0.0013031492260756105	0	0.00011952033877043938	0.00046732961947061646	-3.9963031492260757	-0.16104830692979122	0.0371782658367413	-0.13535016731653363
39	14	22	57	3.995	0	420	101290	286.43	1169.0	-98.2	1338.1	1380.8	-222.8	50.1	0	1.23194272411362	984.38867652	39.9763412793298	456208.297709338	93.74	93.74	0.78	0.74	0	0	0	0	0	101290	1.4456734455218e-05	2.09871946862415	2.09871946862415	10.7602887152661	-0.900542507992106	161.23313725072	-0.289347625212894	-14.744524655956	-0.330780552274794	0.0503336118884381	-0.004212485211666	0.754203383262318	-0.0009691372097855	-0.418056141450779	-0.00110791212213	0.755877483526499	-0.0023336040174553	0.0042179852116659994	0.745492883262318	0.0503336118884381	0.004212485211666	-0.0012755112188402996	-0.426339319367271	-0.432242819367271	-0.0041507152018261	10	0.7546898328749805	0.7920250181361421	10.761790324837076	11.553815342973218	0.04583796577988983	0.009743049025911624	0.042914461804646614	0.008426426629348418	0.0003308668303751031	-9.642461496160307e-05	0.008660868844761917	40.32257112804352	1001.5138385928552	0.7327454943016575	0.04505416972753221	-0.4190492254505923	0.007927144531094703	0	0.004422695786193118	-0.002842797557698983	4.002927144531095	0.7327454943016575	0.049476865513725335	-0.4218920230082913
40	14	23	29	4.5	0	420	101290	286.43	735.1	-82.5	1535.3	1562.4	-650.2	34.2	0	1.23194272411362	984.38867652	39.9763412793298	456208.297709338	103.61	103.61	0.54	0.5	0	0	0	0	0	101290	1.4456734455218e-05	1.89879319552965	1.89879319552965	6.76917171719442	-0.830022657393585	173.948312253356	-0.447953865223165	-16.2049061733542	-0.233387173079251	0.0316642862506158	-0.0038826131344028	0.813681404773792	-0.0015003709076084	-0.459462797579423	-0.0007817039920453	0.813657447821405	-0.0322740314055878	0.0043826131344028	0.8063314047737921	0.0316642862506158	0.0038826131344028	-0.0017753665712513	-0.463037470648559	-0.468387470648559	-0.0039274322370799995	10	5.326760489320333	5.606614607491662	6.7701163622041625	12.376730969695824	0.049786797110193	0.06896943876688737	0.24866349041128874	0.008426426629348418	0.0004046887425648381	-0.0006372888292548105	0.008193826542658445	40.303900485582744	1000.5865873199132	0.7932781774617227	0.0489808277829763	-0.45554162796824454	0.008420388516779887	0	0.004990197969893759	-0.0030196825371963756	4.50842038851678	0.7932781774617227	0.05397102575287006	-0.4585613105054409
41	14	24	5	1.507	0	420	101290	286.43	912.6	-148.3	871.0	925.4	-226.4	86.0	0	1.23194272411362	984.38867652	39.9763412793298	456208.297709338	93.74	93.74	0.36	0.33	0	0	0	0	0	101290	1.4456734455218e-05	2.09871946862415	2.09871946862415	8.40107253074764	-1.25503834429761	104.62525571288	-0.458182062404493	-11.8501053019768	-0.571764900047403	0.0392978604383864	-0.0058707172826469	0.489407594362162	-0.0015346290995329	-0.335989759854934	-0.0019150619932599	0.490271815316289	0.0264132989394271	0.0058242172826469	0.47571739436216204	0.0392978604383864	0.0058707172826469	-0.0024392407046994	-0.33986457846770296	-0.347065978467703	-0.0050462219319691	10	1.0496003497614748	1.0805659533093452	8.402244909226757	9.482810862536102	0.03610103954883599	0.013292518314130084	0.05854853731744687	0.008426426629348418	0.0006059183639212876	-0.00013097653249066174	0.008901368460779043	40.33218542277097	1001.9914865638888	0.4673600749240024	0.03546682284132253	-0.3338938973834462	0.0052802693622686055	0	0.001962301202879904	-0.0018935868758503695	1.5122802693622686	0.4673600749240024	0.037429124044202434	-0.3357874842592966
42	14	24	53	1.507	0	420	101290	286.43	-334.7	-157.2	1125.1	1149.7	-1301.9	91.1	0	1.23194272411362	984.38867652	39.9763412793298	456208.297709338	115.79	115.79	2.83	2.51	0	0	0	0	0	101290	1.4456734455218e-05	1.69905832100205	1.69905832100205	-3.07420352884078	-1.33931491127358	107.528776795585	-0.993146236146831	-13.7087776099463	-0.602205596678192	-0.0143802616622367	-0.006264939419776	0.502989451425108	-0.0033264312140116	-0.388689279942704	-0.002017019670552	0.502437289488842	-0.0276034472758405	0.0062184394197760005	0.489299251425108	-0.0143802616622367	0.006264939419776	-0.0043388159243459	-0.37743476050813596	-0.384636160508136	-0.0051981014234052	10	12.526477796154376	12.867606876919005	-3.0746325371661443	9.792974339752861	0.03755169484065735	0.1582901067229034	0.45695174999953314	0.008426426629348418	0.0007350694552145261	-0.0013388347577634539	0.00782266132679949	40.28906265824256	999.8499936911375	0.48173290550760156	0.0369710090698831	-0.37159824645057693	0.0052802693622686055	0	0.001962301202879904	-0.0018935868758503695	1.5122802693622686	0.48173290550760156	0.038933310272763005	-0.3734918333264273
1	13	14	13	1.507	0	420	101290	286.43	1350.6	-54.1	221.7	251.1	1585.4	29.2	0	1.23194272411362	984.38867652	39.9763412793298	456208.297709338	82.02	82.02	0.0	0.0	0	0	0	0	0	101290	1.4456734455218e-05	2.39860964385305	2.39860964385305	12.435989179542	-0.509402035802516	67.7222546752013	-0.194778750306927	7.32933430513595	-0.18853440075181	0.0581720685546127	-0.0023828398144082	0.316785708379318	-0.0006523894379954	0.207810919002413	-0.0006314746940077	0.318206010191247	0.0498207755005536	0.0023363398144082	0.30309550837931803	0.0581720685546127	0.0023828398144082	-0.0006083347637547	0.198616348807595	0.191414948807595	-0.0037149274601444	-10	-2.985879375881332	-2.979899934291923	12.437724634869562	9.457824700577639	0.03598417760108959	-0.03665706320797869	-0.21090011634819783	0.008426426629348418	0.000882066239195693	0.0003857019072857749	0.009694194775829886	40.36387971811667	1003.56689795118	0.2973033356937086	0.03529651788706206	0.19482077890083443	0.0052802693622686055	0	0.001962301202879904	-0.0018935868758503695	1.5122802693622686	0.2973033356937086	0.03725881908994197	0.19292719202498407
2	13	14	50	3.993	0	420	101290	286.43	1135.5	-122.4	742.2	807.8	1221.3	71.3	0	1.23194272411362	984.38867652	39.9763412793298	456208.297709338	89.48	89.48	0.0	0.0	0	0	0	0	0	101290	1.4456734455218e-05	2.19863615320549	2.19863615320549	10.4546809731635	-1.05854748961859	125.024966837146	-0.108475449460363	4.26044902777297	-0.461149831009785	0.0489040646069354	-0.004951588188554	0.584831720009302	-0.0003633262735192	0.12079785025006	-0.0015445693054817	0.586817493994769	0.0080608315835323	0.004959288188554001	0.576117020009302	0.0489040646069354	0.004951588188554	-0.0008492209129505001	0.112918994478198	0.107014094478198	-0.0045569165664354995	-10	1.0581498531943812	1.0448590186849627	10.456139934853702	11.500998953538666	0.04559094000007957	0.01285327156479245	0.0621327267515046	0.008426426629348418	0.0007344872582069013	-0.00012671702431325143	0.009034196863242068	40.33749541631942	1002.2553412753125	0.5658468929943257	0.04477821493161098	0.11090604853940977	0.007925157857825573	0	0.004420479262841849	-0.0028420851057063047	4.000925157857825	0.5658468929943257	0.04919869419445283	0.10806396343370347
3	13	15	28	3.507	0	420	101290	286.43	-763.6	-193.7	951.5	1006.9	-172.7	109.5	0	1.23194272411362	984.38867652	39.9763412793298	456208.297709338	123.03	123.03	0.0	0.0	0	0	0	0	0	101290	1.4456734455218e-05	1.59907309590204	1.59907309590204	-7.01426831413918	-1.72549539776966	115.860611394856	-0.922203864035574	4.70285913701404	-0.708664442667523	-0.0328107793710367	-0.0080713833954478	0.54196343624425	-0.0030888177464295	0.133341643117158	-0.0023735915583743	0.538941467660997	-0.065901501530849	0.0086136833954478	0.53222813624425	-0.0328107793710367	0.0080713833954478	-0.0045564228285749	0.148834558675431	0.142589458675431	-0.0056863544742198	-10	18.022591672633173	17.83958929195979	-7.015247162635993	10.824342129323796	0.042426170854457886	0.21945265502183356	0.5611480683901092	0.008426426629348418	0.000603916809468985	-0.0017609865616152762	0.007269356877202126	40.26694357073408	998.7524403026657	0.524573787760071	0.041816010146192906	0.14669406383682682	0.007434970263769786	0	0.0038905588263575376	-0.002666296195875025	3.51443497026377	0.524573787760071	0.045706568972550446	0.1440277676409518
4	13	16	3	1.5	0	420	101290	286.43	811.2	-116.2	290.5	336.4	1185.3	66.9	0	1.23194272411362	984.38867652	39.9763412793298	456208.297709338	93.74	93.74	0.0	0.0	0	0	0	0	0	101290	1.4456734455218e-05	2.09871946862415	2.09871946862415	7.47361865580753	-1.03727706828698	67.3388120711723	-0.470345426784413	7.36587019235908	-0.433484466846169	0.0349594914019279	-0.0048520911248284	0.314992071449734	-0.0015753689155521	0.208846832495278	-0.0014519072910156	0.315799264333248	0.0267019804856277	0.0048020911248284	0.301292071449734	0.0349594914019279	0.0048520911248284	-0.0022039302256693	0.206193396073056	0.198993396073056	-0.0045774257900561	-10	1.9732389496148892	1.9696473861813386	7.4746616071260705	9.44430899330741	0.03592166373577505	0.02422950109894737	0.10672182770414931	0.008426426629348418	0.0008802472205746416	-0.00023559083009818424	0.009071083019824875	40.338969989903454	1002.3286193134464	0.29589946624842833	0.03527872829519406	0.20250289212189596	0.005272391036445914	0	0.001956449942634976	-0.001890761585442247	1.5052723910364458	0.29589946624842833	0.037235178237829035	0.20061213053645371
5	13	16	54	-0.5	0	420	101290	286.43	1374.6	-11.1	-206.4	-207.0	1807.6	0.5	0	1.23194272411362	984.38867652	39.9763412793298	456208.297709338	82.02	82.02	0.0	0.0	0	0	0	0	0	101290	1.4456734455218e-05	2.39860964385305	2.39860964385305	12.6455546239127	-0.196179023760226	18.8497604501696	-0.321885267501242	10.1084818169733	-0.0082480544932223	0.0591523569113012	-0.0009176704365367	0.0881738912212269	-0.0010781183698594	0.286608961830598	-2.76259275044642e-05	0.0876543386872302	0.0599195571625747	0.0004676704365367	0.0716238912212269	0.0591523569113012	0.0009176704365367	-0.0006369566849916	0.276136694452648	0.269936694452648	-0.003215957875622427	-10	-3.898035086238721	-3.9443650285138214	12.647319324317708	8.702954295803886	0.03280429831705903	-0.04852137365475955	-0.2791593884950348	0.008426426629348418	0.0009737862133584605	0.0005192619065509099	0.009919474749257789	40.37288558721782	1004.0147736482297	0.0702238147654774	0.03216305242915778	0.27073887987039486	0.002948869370400195	0	0.000612018547157472	-0.0010575105085146408	-0.4970511306295998	0.0702238147654774	0.032775070976315254	0.2696813693618802
6	13	17	26	-4.002	0	420	101290	286.43	1224.6	-38.6	-992.2	-991.1	2114.6	5.8	0	1.23194272411362	984.38867652	39.9763412793298	456208.297709338	89.48	89.48	0.0	0.0	0	0	0	0	0	101290	1.4456734455218e-05	2.19863615320549	2.19863615320549	11.2603549167885	-0.553293844200558	-69.718896620592	-0.628777649625147	15.300404364475	-0.0579951589204804	0.0526727812891854	-0.0025881533805632	-0.326125439256324	-0.0021060197625083	0.433817173527208	-0.0001942482384498	-0.329006321407515	0.0297836279315252	-0.0037084466194368003	-0.345731839256324	0.0526727812891854	0.0025881533805632	-0.0012419412735992	0.41976699377173704	0.418971193771737	-0.0025950178656141444	-10	-1.679314393015975	-1.7451391607162763	11.261926311122211	9.516787150405936	0.037712048915719235	-0.021467726410852192	-0.10377500952482803	0.008426426629348418	0.0009468455646555529	0.00022121189278475977	0.009594484086788731	40.35989364958237	1003.3686965423427	-0.3391918731859659	0.03699867660704495	0.4118265567479775	-0.0013117115216590169	0	0.0001210961068425485	0.0004704001920932457	-4.0033117115216585	-0.3391918731859659	0.0371197727138875	0.4122969569400708
7	13	18	19	6.994	0	420	101290	286.43	801.4	-188.2	1375.1	1457.3	666.5	109.5	0	1.23194272411362	984.38867652	39.9763412793298	456208.297709338	103.61	103.61	0.0	0.0	0	0	0	0	0	101290	1.4456734455218e-05	1.89879319552965	1.89879319552965	7.38080653695596	-1.62674250273028	189.98489062869	-0.424377293946911	-0.625906319872294	-0.706703711690457	0.0345253423477125	-0.0076094450568678	0.888696019466928	-0.0014214038433853	-0.0177465185959568	-0.0023670243112893	0.886287143160088	-0.0739439933308971	0.0113082450568678	0.882605019466928	0.0345253423477125	0.0076094450568678	-0.0037477908113248	-0.0252673888185595	-0.0274775888185595	-0.006044717980626901	-10	8.379733917109679	8.242145470444003	7.381836536246034	15.623982006690037	0.06686720702145275	0.10139026616382445	0.3655540472533268	0.008426426629348418	0.0009054432844144303	-0.0009056038558293168	0.008426266057933531	40.313192566972184	1001.0480118306679	0.8679167999285976	0.06575441002281424	-0.024846891601863957	0.010578161390626187	0	0.007875423043668579	-0.0037934935143745956	7.004578161390626	0.8679167999285976	0.07362983306648281	-0.028640385116238554
8	13	19	16	6.995	0	420	101290	286.43	-340.3	-159.9	1588.6	1634.3	-229.5	83.0	0	1.23194272411362	984.38867652	39.9763412793298	456208.297709338	123.03	123.03	0.0	0.0	0	0	0	0	0	101290	1.4456734455218e-05	1.59907309590204	1.59907309590204	-3.12296116643997	-1.50622532733433	191.909260353277	-0.858114453927688	-1.17829483656238	-0.531751660831537	-0.0146083362123213	-0.007045699520592	0.897697681170466	-0.0028741575015319	-0.0334085638132568	-0.0017810421651047	0.889236879480682	-0.123823674784689	0.010744699520592	0.8916051811704659	-0.0146083362123213	0.007045699520592	-0.0051039345530872	-0.0270826608897516	-0.0292911608897516	-0.0056283305344808	-10	18.886703144595955	18.57878918790432	-3.123396978944777	15.455392208959543	0.06607990128112691	0.22854587892413503	0.5843997580436593	0.008426426629348418	0.0007076951678947411	-0.0018204833048506383	0.007313638492392521	40.268713787695326	998.8402566212512	0.8787051167117489	0.06512383350140276	-0.026690819210755598	0.010578922766306727	0	0.007876556770248875	-0.00379376655555817	7.005578922766307	0.8787051167117489	0.07300039027165163	-0.030484585766313767
9	13	19	59	6.995	0	420	101290	286.43	-338.6	-159.9	1589.3	1635.5	-227.2	82.6	0	1.23194272411362	984.38867652	39.9763412793298	456208.297709338	123.03	123.03	0.0	0.0	0	0	0	0	0	101290	1.4456734455218e-05	1.59907309590204	1.59907309590204	-3.10733607510593	-1.51114478302251	192.082526181642	-0.855228010639681	-1.16495087293121	-0.529166588042348	-0.0145352464185676	-0.0070687113541834	0.898508170107075	-0.0028644896855535	-0.0330302182187072	-0.0017723837555941	0.890050236846629	-0.123849832566995	0.0107677113541834	0.8924156701070749	-0.0145352464185676	0.0070687113541834	-0.0051018308187263	-0.026724915870524602	-0.0289334158705246	-0.0056194803728841	-10	18.871075872764038	18.563414014097194	-3.1077697071128583	15.455644306984336	0.06608108036042086	0.22835674213078314	0.5839161286875216	0.008426426629348418	0.0006993372502747044	-0.0018192536899736926	0.00730651018964943	40.26842882423213	998.8261199903624	0.8795163270368709	0.06512591725137716	-0.02633862294685275	0.010578922766306727	0	0.007876556770248875	-0.00379376655555817	7.005578922766307	0.8795163270368709	0.07300247402162603	-0.03013238950241092
10	13	20	20	6.995	0	420	101290	286.43	-338.5	-159.9	1589.0	1634.6	-226.9	82.8	0	1.23194272411362	984.38867652	39.9763412793298	456208.297709338	123.03	123.03	0.0	0.0	0	0	0	0	0	101290	1.4456734455218e-05	1.59907309590204	1.59907309590204	-3.10641109605041	-1.50868158723743	192.016211480596	-0.862357620455941	-1.16205047417987	-0.530462185343373	-0.0145309196260421	-0.0070571892153326	0.898197968539695	-0.0028883695088598	-0.032947982301379	-0.00177672321251	0.889742871105431	-0.123807760786946	0.0107561892153326	0.892105468539695	-0.0145309196260421	0.0070571892153326	-0.0051217810516043	-0.026643899472513	-0.028852399472513	-0.0056262171240435005	-10	18.87015076462672	18.56250382983328	-3.106844598975542	15.455659230857737	0.06608115016037319	0.22834554555276745	0.5838874986482748	0.008426426629348418	0.0007026056762129513	-0.0018191808884372707	0.007309851417124099	40.26856239428195	998.832746197531	0.8792047766106925	0.06512555399983336	-0.02625860339373786	0.010578922766306727	0	0.007876556770248875	-0.00379376655555817	7.005578922766307	0.8792047766106925	0.07300211077008223	-0.03005236994929603
11	13	21	6	1.005	0	420	101290	286.43	-859.6	-253.1	402.6	489.5	3.5	143.2	0	1.23194272411362	984.38867652	39.9763412793298	456208.297709338	123.03	123.03	0.0	0.0	0	0	0	0	0	101290	1.4456734455218e-05	1.59907309590204	1.59907309590204	-7.89916147739412	-2.29430780561061	54.5760455087915	-1.0860136797153	8.28071437314289	-0.928936175376409	-0.0369500613383333	-0.0107321282630996	0.255291429973245	-0.0036374802335902	0.234785697068486	-0.0031113668633385	0.254604066572718	-0.041422102014817	0.010434628263099599	0.240898429973245	-0.0369500613383333	0.0107321282630996	-0.0058077652430513	0.252301181535912	0.245200181535912	-0.0063262686496459	-10	17.095740593051396	17.116356640579074	-7.900263813659552	9.216092826919521	0.0349037814881276	0.21055585123636128	0.5383986318040408	0.008426426629348418	0.0009389296010796921	-0.0017020080862802927	0.007663348144147818	40.28269390008257	999.5339128947301	0.2372482650141793	0.0343749089664553	0.2484782386795574	0.004710237714755438	0	0.0015614898500773942	-0.001689164644237824	1.0097102377147553	0.2372482650141793	0.0359363988165327	0.24678907403531958
