run	hr	min	sec	AoA	AoS	dPb	pBar	temp	B1	B2	B3	B4	B5	B6	rpmWT	rho	q	V	Re	rpsM1	rpsM2	iM1	iM2	dPtQ	tM1	tM2	vM1	vM2	pInf	nu	J_M1	J_M2	FX	FY	FZ	MX	MY	MZ	CFX	CFY	CFZ	CMX	CMY	CMZ	CN	CT	CY	CL	CD	CYaw	CMroll	CMpitch	CMpitch25c	CMyaw	delta_e	T_0	thrust	F_meas	Drag_Force	CD_thrust_cor	TC_thrust_cor	CT_thrust_cor	epsilon_sb	epsilon_wb	epsilon_ss	epsilon_total	V_cor	q_cor	CL_cor1	CD_cor1	CMpitch_cor1	delta_alpha_total	delta_CL	delta_CDw	delta_CMpitch_total	AoA_cor	CL_cor2	CD_cor2	CMpitch_cor2
1	14	0	8	7.0	0	420	101290	286.43	1442.5	-155.8	1849.1	1925.0	-306.4	77.8	0	1.23194272411362	984.38867652	39.9763412793298	456208.297709338	98.43	98.43	0.64	0.64	0	0	0	0	0	101290	1.4456734455218e-05	1.9987195264536	1.9987195264536	13.2747399213173	-1.46092587405618	223.861184144109	-0.335150955395857	-19.4133622311448	-0.509370623752683	0.0620955092191517	-0.0068338013865925	1.04715981678166	-0.0011225502940634	-0.550433160533274	-0.0017060794077268	1.04692198523701	-0.0659840206017581	0.0105338013865925	1.04105981678166	0.0620955092191517	0.0068338013865925	-0.0033180343427176	-0.565734964125379	-0.567934964125379	-0.0053367945455739	10	2.495395504015695	3.5590811771657958	13.27659242519015	16.835673602355946	0.07254156951615165	0.04378182709168544	0.17490313426635581	0.008426426629348418	0.000647870121872037	-0.00041606003411241726	0.008658236717108038	40.32246590521014	1001.508611645102	1.023263787553937	0.07130153328526033	-0.5560642076573752	0.010582728286084177	0	0.007882224603264133	-0.003795131274251853	7.010582728286084	1.023263787553937	0.07918375788852447	-0.5598593389316271
2	14	0	53	1.507	0	420	101290	286.43	400.3	-95.8	1000.4	1016.6	-686.8	45.0	0	1.23194272411362	984.38867652	39.9763412793298	456208.297709338	103.61	103.61	0.43	0.43	0	0	0	0	0	101290	1.4456734455218e-05	1.89879319552965	1.89879319552965	3.6877839747272	-0.925059835613591	106.837201882518	-0.712960279523638	-12.8550205999754	-0.303445197757347	0.0172504188525141	-0.0043271703921194	0.499754457998148	-0.0023879799790201	-0.364482439121909	-0.001016355437723	0.500035272758345	0.0041013701487263	0.004280670392119401	0.486064257998148	0.0172504188525141	0.0043271703921194	-0.0028810287853046996	-0.362143120880071	-0.369344520880071	-0.0041594448413603	10	5.763546650108903	7.3589160021019016	3.6882986088470453	11.047214610948947	0.04341786033168488	0.09052527097536721	0.32638122411356896	0.008426426629348418	0.0009752473107856216	-0.0008175986624841474	0.008584075277649893	40.31950120219659	1001.3613455303794	0.4778256658000353	0.042681945193919844	-0.35600494173772784	0.005280269362268606	0	0.0019623012028799048	-0.00189358687585037	1.5122802693622686	0.4778256658000353	0.04464424639679975	-0.35789852861357824
3	14	1	39	-0.002	0	420	101290	286.43	-870.8	-167.6	901.8	921.1	-1620.5	89.9	0	1.23194272411362	984.38867652	39.9763412793298	456208.297709338	123.03	123.03	0.28	0.27	0	0	0	0	0	101290	1.4456734455218e-05	1.59907309590204	1.59907309590204	-8.00479211014517	-1.52996076947796	71.9465001350256	-1.2669138813634	-12.5357634694238	-0.596328699718011	-0.0374441718044287	-0.0071567272601324	0.336545543558707	-0.0042433850394301	-0.355430441363871	-0.0019973356675538	0.336546850401838	-0.0374324241259828	0.0071549272601324	0.32034414355870705	-0.0374441718044287	0.0071567272601324	-0.0056601995774328	-0.33837789039490296	-0.344876690394903	-0.005197117130185501	10	16.849310198351937	20.65176952744263	-8.005909187276139	12.645860340166493	0.051145933145013055	0.25404652425147867	0.6496057947020741	0.008426426629348418	0.002650114239827557	-0.001983313003851619	0.009093227865324356	40.33985525980472	1002.3726135500206	0.3145967310418265	0.0502283050807706	-0.33230692776987564	0.0035392880854712124	0	0.0008816279352427955	-0.0012692438602455037	0.0015392880854712123	0.3145967310418265	0.051109933016013395	-0.33357617163012115
4	14	2	25	1.495	0	420	101290	286.43	1447.9	-70.1	778.5	812.0	225.7	35.0	0	1.23194272411362	984.38867652	39.9763412793298	456208.297709338	82.02	82.02	0.26	0.26	0	0	0	0	0	101290	1.4456734455218e-05	2.39860964385305	2.39860964385305	13.3258416127889	-0.633996483855698	103.10835762711	-0.157867890599475	-11.174994012601	-0.240248823943497	0.062334548595644	-0.0029656576883251	0.482311970671776	-0.0005287606798145	-0.316848117294602	-0.0008046863170884	0.483774084747077	0.0497299500205141	0.0029131576883251	0.468604970671776	0.062334548595644	0.0029656576883251	-0.000642181552345	-0.327218294844514	-0.334417294844514	-0.003889955625717	10	-3.882611931501806	-5.091661442530464	13.327701247956371	8.236039805425907	0.03027100807078987	-0.06263477279374396	-0.3603584060920721	0.008426426629348418	-0.0006750162827425685	0.0006844803251464322	0.008435890671752282	40.31357732381889	1001.0671203105438	0.46079770030523537	0.02976667295044834	-0.32176662049913257	0.005266762399869422	0	0.0019522748852375726	-0.0018887430686547624	1.5002667623998696	0.46079770030523537	0.031718947835685914	-0.32365536356778735
5	14	3	3	3.0	0	420	101290	286.43	-603.0	-48.0	1536.7	1507.6	-1703.5	16.0	0	1.23194272411362	984.38867652	39.9763412793298	456208.297709338	123.03	123.03	0.7	0.69	0	0	0	0	0	101290	1.4456734455218e-05	1.59907309590204	1.59907309590204	-5.55147734473966	-0.547438631514398	144.827045968018	-0.981068416306108	-16.5768765687815	-0.101978441022269	-0.0259682535916671	-0.0025607643382552	0.677460290852704	-0.0032859779197704	-0.470009391103106	-0.0003415652771225	0.675172781685255	-0.0613881971410344	0.0036607643382552003	0.666660290852704	-0.0259682535916671	0.0025607643382552	-0.0034843683400487004	-0.456090161746482	-0.462690161746482	-0.0036496229008817	10	16.08448299080674	20.633619659927124	-5.552252059223138	15.081367600703986	0.06233656321558109	0.25382325472719836	0.6490348867662926	0.008426426629348418	0.002444964807371839	-0.00198191209085421	0.008889479345866046	40.331710139455694	1001.9678713283333	0.6549639566096276	0.0612428888375834	-0.4480882107529073	0.006908575562658777	0	0.0033591588280344415	-0.0024775228532376843	3.0069085755626586	0.6549639566096276	0.06460204766561785	-0.45056573360614494
6	14	3	40	4.5	0	420	101290	286.43	13.1	0.3	1727.5	1685.3	-1305.1	-5.6	0	1.23194272411362	984.38867652	39.9763412793298	456208.297709338	115.79	115.79	0.47	0.46	0	0	0	0	0	101290	1.4456734455218e-05	1.69905832100205	1.69905832100205	0.126388017799647	-0.0030927472164859	177.173780385919	-0.676538655916921	-17.6976608792662	0.028539013597641	0.0005912076900177	-1.44670038307425e-05	0.828769239816045	-0.0022659898619349	-0.501787340896186	9.5588204629978e-05	0.826260806458189	-0.0644350999290054	0.0005144670038307425	0.821419239816045	0.0005912076900177	1.44670038307425e-05	-0.0015205693337149	-0.49660397453850497	-0.501953974538505	-0.0030328532786145965	10	11.970471196114087	15.852368917187967	0.12640565538002352	15.97877457256799	0.06663379554072074	0.19500698084066234	0.5629459920275152	0.008426426629348418	0.0018795583351831004	-0.0015970364133314958	0.008708948551200022	40.32449317879669	1001.6093189281784	0.8072966006505001	0.06548816246440878	-0.4880658755987317	0.008420388516779887	0	0.004990197969893761	-0.003019682537196376	4.50842038851678	0.8072966006505001	0.07047836043430254	-0.4910855581359281
7	14	4	21	-0.995	0	420	101290	286.43	962.8	-124.1	328.8	380.2	34.1	52.2	0	1.23194272411362	984.38867652	39.9763412793298	456208.297709338	89.48	89.48	0.3	0.29	0	0	0	0	0	101290	1.4456734455218e-05	2.19863615320549	2.19863615320549	8.85198608759231	-1.31267388660428	44.3637183565725	-0.538409783345625	-8.84835611409139	-0.357849232514171	0.0414071075567518	-0.0061403201803208	0.207521028550067	-0.0018033427949127	-0.250880221746939	-0.0011985756111442	0.206770696592493	0.0450044984123764	0.005244820180320801	0.19062452855006698	0.0414071075567518	0.0061403201803208	-0.0027552908352123	-0.256647937920918	-0.262550937920918	-0.0043366740782835	10	-0.1450220910197242	-0.17920426454818283	8.85322139153101	8.674017126982827	0.032767957246416915	-0.002204470686108125	-0.010656413356024021	0.008426426629348418	0.0005544149349982585	2.214835883499837e-05	0.009002989923181675	40.33624787703328	1002.1933476604428	0.18723794945326994	0.03218581139194831	-0.25208840642510233	0.0023560179590669823	0	0.00039067058041363683	-0.0008449047539954012	-0.992643982040933	0.18723794945326994	0.032576481972361945	-0.25293331117909773
8	14	4	57	-4.0	0	420	101290	286.43	560.8	-120.9	-263.6	-243.2	27.1	55.5	0	1.23194272411362	984.38867652	39.9763412793298	456208.297709338	98.43	98.43	0.48	0.47	0	0	0	0	0	101290	1.4456734455218e-05	1.9987195264536	1.9987195264536	5.14935223126477	-1.22382685554223	-30.4286490902309	-0.973940616796342	-5.28956841571271	-0.386461041843666	0.0240872251241387	-0.0057247186944079	-0.142336683905538	-0.0032621041598813	-0.14997679568595	-0.001294407636861	-0.143670198784302	0.0140996447006735	-0.0005752813055920998	-0.161936683905538	0.0240872251241387	0.0057247186944079	-0.003354049631748	-0.155965851585526	-0.156765851585526	-0.0035456774918501	10	4.431318016496554	5.171136687049669	5.150070828767069	10.321207515816738	0.04147297667398244	0.06361243282463434	0.25412401944845947	0.008426426629348418	0.0017510431012727739	-0.000591229419884061	0.009586240310737132	40.3595640935775	1003.3523107296397	-0.1588760361092784	0.040689126025690824	-0.15301805415980219	-0.0013092651842144508	0	0.00012064484040083996	0.0004695228973643	-4.001309265184214	-0.1588760361092784	0.040809770866091666	-0.1525485312624379
9	14	5	56	6.995	0	420	101290	286.43	1171.8	-146.7	1907.0	1970.6	-546.0	74.5	0	1.23194272411362	984.38867652	39.9763412793298	456208.297709338	103.61	103.61	0.71	0.72	0	0	0	0	0	101290	1.4456734455218e-05	1.89879319552965	1.89879319552965	10.7842640702183	-1.35760335734299	224.318711597617	-0.417505140463288	-19.8954110077937	-0.487099546713235	0.0504457618727913	-0.0063504876397968	1.04930000185313	-0.0013983863410041	-0.564100840994949	-0.0016314849490888	1.04763325665207	-0.0777163324950356	0.0100494876397968	1.04320750185313	0.0504457618727913	0.0063504876397968	-0.0034628723110004	-0.576110628717427	-0.578319128717427	-0.005280033470347	10	4.97753714004747	7.023219188637938	10.785769025575224	17.808988214213162	0.07708782694171235	0.08639571643286222	0.31149246374749084	0.008426426629348418	0.0012248670969165231	-0.00078365738013906	0.008867636346125881	40.33083693624352	1001.9244855115926	1.0249491522912344	0.07573862605045299	-0.5660274676715558	0.01057892276630673	0	0.007876556770248877	-0.0037937665555581707	7.005578922766307	1.0249491522912344	0.08361518282070186	-0.569821234227114
10	14	6	31	4.005	0	420	101290	286.43	1721.2	-79.8	1243.7	1287.6	239.7	43.2	0	1.23194272411362	984.38867652	39.9763412793298	456208.297709338	82.02	82.02	0.78	0.74	0	0	0	0	0	101290	1.4456734455218e-05	2.39860964385305	2.39860964385305	15.840435328452	-0.689937624871104	161.096638496015	-0.0634841834476939	-14.0995980628282	-0.286719831926474	0.0740971125463421	-0.0032273346521106	0.753564880381553	-0.0002126331065158	-0.399770335069552	-0.0009603357127916	0.756899847800974	0.0212845350203259	0.0032323346521106	0.744878380381553	0.0740971125463421	0.0032273346521106	-0.00025295310244969997	-0.41476032618389796	-0.420654826183898	-0.003931997570726	10	-4.315201063388834	-5.984204142501497	15.84264587780873	9.858441735307233	0.03790959022076763	-0.07361433415154255	-0.4235274263344763	0.008426426629348418	-0.001315920452926455	0.0008181898940175252	0.007928696070439488	40.29330153934177	1000.0603966103005	0.7332055599016865	0.03731551761406149	-0.4082607110021074	0.007937074052134455	0	0.004433782440348274	-0.002846358438675759	4.012937074052134	0.7332055599016865	0.041749300054409764	-0.4111070694407832
11	14	7	23	-1.0	0	420	101290	286.43	-909.6	-262.6	653.7	733.1	-1546.8	133.2	0	1.23194272411362	984.38867652	39.9763412793298	456208.297709338	123.03	123.03	0.54	0.5	0	0	0	0	0	101290	1.4456734455218e-05	1.59907309590204	1.59907309590204	-8.37396026915223	-2.53109242537069	47.0757257609248	-1.31615100685147	-11.2080684912761	-0.882304415391811	-0.039171036884793	-0.0118397402861159	0.220207038353463	-0.0044082992334839	-0.317785888383062	-0.0029551790469512	0.220857128611209	-0.0353219282124511	0.0109397402861159	0.203307038353463	-0.039171036884793	0.0118397402861159	-0.006995760506329	-0.300845415365324	-0.306745415365324	-0.006018674178024401	10	17.08318000719843	20.621992912692313	-8.375128864086822	12.246864048605492	0.04947940084934769	0.25368022898214393	0.64866916496375	0.008426426629348418	0.0027316828613892564	-0.001981014447266526	0.009177095043471148	40.34320796274045	1002.5392377105198	0.19962624791525035	0.04858359661645076	-0.29539873266695327	0.002350002771025369	0	0.0003886782720463566	-0.0008427476138288858	-0.9976499972289746	0.19962624791525035	0.04897227488849711	-0.2962414802807822
12	14	8	7	6.995	0	420	101290	286.43	2215.1	-213.2	1664.1	1787.7	377.7	121.6	0	1.23194272411362	984.38867652	39.9763412793298	456208.297709338	82.02	82.02	0.36	0.33	0	0	0	0	0	101290	1.4456734455218e-05	2.39860964385305	2.39860964385305	20.3828380696984	-1.83347275103239	220.910767774223	0.0210860254689268	-18.0343517987726	-0.796578034600929	0.0953451982314874	-0.0085764711617414	1.03335859672141	7.06252621682517e-05	-0.511333644351516	-0.0026680482110801	1.0372784826568	-0.0312097045974019	0.012275471161741401	1.02726609672141	0.0953451982314874	0.0085764711617414	-0.0025012895675442	-0.5359984714871141	-0.538206971487114	-0.0061917771983266	10	-4.622376350497145	-6.905974110949181	20.38568251611984	13.479708405170658	0.05683949621909201	-0.0849534330279054	-0.488764983929874	0.008426426629348418	-0.0012807703600602157	0.0009614566741308881	0.00810711294341909	40.300433993146	1000.4144761032072	1.0108101567306111	0.05592897523346439	-0.5274122261996441	0.01057892276630673	0	0.007876556770248877	-0.0037937665555581707	7.005578922766307	1.0108101567306111	0.06380553200371326	-0.5312059927552023
13	14	8	29	6.995	0	420	101290	286.43	2214.6	-211.8	1664.5	1787.2	376.5	120.7	0	1.23194272411362	984.38867652	39.9763412793298	456208.297709338	82.02	82.02	2.83	2.51	0	0	0	0	0	101290	1.4456734455218e-05	2.39860964385305	2.39860964385305	20.3782411065109	-1.82223790844083	220.875051979465	0.0183831699006	-18.0450441619338	-0.790702893971995	0.0953236949273414	-0.0085239177199523	1.03319152825335	6.15723525339872e-05	-0.511636808284602	-0.0026483700907153	1.03711003898458	-0.0312107017941598	0.012222917719952299	1.0270990282533499	0.0953236949273414	0.0085239177199523	-0.0024979694574913	-0.536295574650097	-0.538504074650097	-0.006171841214426399	10	-4.617778745798649	-6.898817837151544	20.381084911421343	13.4822670742698	0.05685146328530495	-0.08486540054805103	-0.48825850417893574	0.008426426629348418	-0.0012775071684114014	0.000960323027236199	0.008109242488173215	40.30051912455386	1000.4187026970329	1.0106414947577047	0.05594051425745371	-0.5277023405601188	0.01057892276630673	0	0.007876556770248877	-0.0037937665555581707	7.005578922766307	1.0106414947577047	0.06381707102770258	-0.531496107115677
14	14	8	50	6.995	0	420	101290	286.43	2215.3	-212.7	1662.7	1786.1	377.0	121.0	0	1.23194272411362	984.38867652	39.9763412793298	456208.297709338	82.02	82.02	4.73	4.5	0	0	0	0	0	101290	1.4456734455218e-05	2.39860964385305	2.39860964385305	20.3847002121964	-1.83288565699547	220.709365550279	0.018439825176817	-18.0453411937556	-0.792676340968257	0.0953539088116821	-0.0085737249005417	1.03241649361975	6.17621129865644e-05	-0.511645230121196	-0.0026549799286713	1.0363444526312	-0.0310863269671575	0.012272724900541699	1.02632399361975	0.0953539088116821	0.0085737249005417	-0.002510909956942	-0.536312512359677	-0.538521012359677	-0.0061799777832352	10	-4.624238752859025	-6.908873177404768	20.38754491848172	13.478671741076951	0.05683464767191014	-0.0849890957228448	-0.48897016311919794	0.008426426629348418	-0.0012719027212510282	0.0009619160218777287	0.008116439929975119	40.30080685194367	1000.4329878177138	1.0098644587518848	0.05592316955108856	-0.5277114716043861	0.01057892276630673	0	0.007876556770248877	-0.0037937665555581707	7.005578922766307	1.0098644587518848	0.06379972632133743	-0.5315052381599443
15	14	9	12	6.995	0	420	101290	286.43	2214.4	-209.9	1664.1	1785.0	377.5	120.1	0	1.23194272411362	984.38867652	39.9763412793298	456208.297709338	82.02	82.02	7.77	7.62	0	0	0	0	0	101290	1.4456734455218e-05	2.39860964385305	2.39860964385305	20.3764060903615	-1.79932802158364	220.739955352138	0.0133108451086089	-18.0301766154363	-0.786757125295455	0.0953151112365948	-0.0084167516964383	1.0325595841311	4.45831731950547e-05	-0.511215264066212	-0.0026351541839221	1.03648175321432	-0.031142261716146	0.0121157516964383	1.0264670841310999	0.0953151112365948	0.0084167516964383	-0.0024864614128509	-0.5358716110929911	-0.538080111092991	-0.0061573221954376	10	-4.615943473570759	-6.895961387243226	20.379249639193453	13.483288251950228	0.05685623940149792	-0.08483026209805321	-0.4880563411428302	0.008426426629348418	-0.0012705012206672885	0.0009598706244082885	0.008115796033089418	40.30078111130201	1000.4317098393889	1.0100065446759732	0.055944486471075694	-0.5272783147918776	0.01057892276630673	0	0.007876556770248877	-0.0037937665555581707	7.005578922766307	1.0100065446759732	0.06382104324132457	-0.5310720813474358
16	14	9	33	6.995	0	420	101290	286.43	2214.7	-210.0	1664.8	1785.2	377.2	120.9	0	1.23194272411362	984.38867652	39.9763412793298	456208.297709338	82.02	82.02	7.43	7.73	0	0	0	0	0	101290	1.4456734455218e-05	2.39860964385305	2.39860964385305	20.3791565586293	-1.79107455274013	220.787787066971	0.0139253338581718	-18.0369678168521	-0.791939795371551	0.0953279771555275	-0.0083781442846397	1.03278332747424	4.66413338997011e-05	-0.511407817134281	-0.0026525129523346	1.0367053980339	-0.0311567396355052	0.012077144284639699	1.02669082747424	0.0953279771555275	0.0083781442846397	-0.0024715039539269	-0.5360677904585021	-0.538276290458502	-0.0061727301986335	10	-4.618694325669292	-6.900242902696807	20.38200049129199	13.481757588595183	0.056849080386787626	-0.08488293090776783	-0.488359362092264	0.008426426629348418	-0.0012737017038676876	0.0009605487487429029	0.008113273674223632	40.30068027662316	1000.4267035798978	1.010231755346058	0.055937722177024696	-0.5274739877355759	0.01057892276630673	0	0.007876556770248877	-0.0037937665555581707	7.005578922766307	1.010231755346058	0.06381427894727357	-0.531267754291134
17	14	10	22	-3.995	0	420	101290	286.43	-42.5	-190.5	-175.1	-130.8	-469.6	97.8	0	1.23194272411362	984.38867652	39.9763412793298	456208.297709338	109.36	109.36	4.57	4.49	0	0	0	0	0	101290	1.4456734455218e-05	1.79895723288979	1.79895723288979	-0.400882605081458	-1.81502794959705	-30.3158727113104	-1.19374356344827	-5.88772622689906	-0.661150825463281	-0.0018752163618406	-0.0084901915551832	-0.14180914764355	-0.0039983093188632	-0.166936552094387	-0.0022144500607717	-0.141333925162103	-0.011750420846369	0.0021986915551832006	-0.16140464764354998	-0.0018752163618406	0.0084901915551832	-0.0049320444693357005	-0.16560001679657899	-0.166408016796579	-0.0043551248354616	10	9.979273447699093	11.59671234514131	-0.4009385486692633	11.195773796472047	0.04556188156132032	0.14265627263138397	0.46167095227587596	0.008426426629348418	0.00229062220940024	-0.0012240933608747575	0.0094929554778739	40.355834907262775	1003.1669016487533	-0.1583833230710424	0.04470901124847219	-0.16250015934352646	-0.0013031492260756137	0	0.00011952033877044	0.0004673296194706177	-3.9963031492260757	-0.1583833230710424	0.04482853158724263	-0.16203282972405583
18	14	11	17	-0.505	0	420	101290	286.43	264.8	-173.4	554.3	611.6	-597.4	88.1	0	1.23194272411362	984.38867652	39.9763412793298	456208.297709338	103.61	103.61	2.14	2.09	0	0	0	0	0	101290	1.4456734455218e-05	1.89879319552965	1.89879319552965	2.43300244497927	-1.64842907535441	56.8296845403585	-0.778878631821631	-10.2742181481868	-0.589528333877701	0.011380902876283	-0.0077108887595916	0.265833321120701	-0.002608766059337	-0.291308136116784	-0.0019745586097807	0.265722686563238	0.0137234621708995	0.0072563887595916	0.24927982112070102	0.011380902876283	0.0077108887595916	-0.0040983205586831994	-0.288318877374506	-0.294515877374506	-0.0051321816685836	10	6.315265760525322	7.785757724700516	2.4333419730211507	10.219099697721667	0.03989641159125534	0.09577603923944245	0.3453124259216462	0.008426426629348418	0.0013668384732579341	-0.0008603603624598967	0.008932904740146456	40.33344612783764	1002.0541281229046	0.24488520760432586	0.03919306822055827	-0.2832360350094892	0.0029429090117814314	0	0.0006095469806123355	-0.001055373031033567	-0.5020570909882186	0.24488520760432586	0.03980261520117061	-0.2842914080405228
19	14	12	4	-3.995	0	420	101290	286.43	1000.4	-72.2	-333.6	-326.6	397.4	25.2	0	1.23194272411362	984.38867652	39.9763412793298	456208.297709338	89.48	89.48	7.64	7.76	0	0	0	0	0	101290	1.4456734455218e-05	2.19863615320549	2.19863615320549	9.19359826775637	-0.818685190349725	-30.7349823864925	-0.776281440356422	-4.74528782772682	-0.189734821220439	0.0430050734987201	-0.0038295796442164	-0.143769625125848	-0.002600067059689	-0.134544637119344	-0.0006354953668668	-0.146416422692292	0.0328842305892832	-0.0024619203557836003	-0.163365125125848	0.0430050734987201	0.0038295796442164	-0.0021167794832476	-0.145857744737324	-0.146665744737324	-0.0029761446676812	10	0.3834536549968828	0.44918189760661376	9.194881244032947	9.644063141639561	0.038304427224634494	0.0055255846087187465	0.026710681160449373	0.008426426629348418	0.0013312874932682982	-5.497419772000746e-05	0.009702739924896708	40.364221321912055	1003.5838846092679	-0.1602404958652448	0.037571791455375064	-0.14306797319495382	-0.0013031492260756137	0	0.00011952033877044	0.0004673296194706177	-3.9963031492260757	-0.1602404958652448	0.037691311794145504	-0.1426006435754832
20	14	12	40	-0.505	0	420	101290	286.43	1321.4	-120.4	354.6	417.6	305.9	52.0	0	1.23194272411362	984.38867652	39.9763412793298	456208.297709338	82.02	82.02	4.38	4.37	0	0	0	0	0	101290	1.4456734455218e-05	2.39860964385305	2.39860964385305	12.153748174306	-1.24356488978965	54.8874349601819	-0.290441931509963	-8.79814729830661	-0.356527687566401	0.0568518243128019	-0.0058170476812538	0.256748022468779	-0.0009728024652048	-0.249456635413464	-0.0011941492455144	0.25623696926109	0.0591125414206971	0.0053625476812537995	0.24019452246877898	0.0568518243128019	0.0058170476812538	-0.0019217781421153	-0.259283490849834	-0.265480490849834	-0.004370986223708601	10	-3.4068365090589072	-4.282437983569363	12.155444242605382	7.8730062590360195	0.028923575935436863	-0.05268015816284534	-0.30308624078121227	0.008426426629348418	-5.70366637489138e-05	0.0005672052884799872	0.008936595254079492	40.33359366108212	1002.0614588412654	0.2359583496543294	0.028413467441641832	-0.25471065686559347	0.0029429090117814314	0	0.0006095469806123355	-0.001055373031033567	-0.5020570909882186	0.2359583496543294	0.02902301442225417	-0.25576602989662706
21	14	13	20	-0.995	0	420	101290	286.43	767.6	-155.4	356.4	417.2	-124.3	73.2	0	1.23194272411362	984.38867652	39.9763412793298	456208.297709338	93.74	93.74	2.19	2.12	0	0	0	0	0	101290	1.4456734455218e-05	2.09871946862415	2.09871946862415	7.05617898239799	-1.5539034799887	44.4324401312455	-0.635117389584768	-9.01141874594084	-0.494379693133641	0.033006825719415	-0.0072687245429465	0.207842489732588	-0.0021272540058884	-0.255503587794772	-0.0016558689777585	0.207237981484307	0.0366110654396029	0.0063732245429465005	0.190945989732588	0.033006825719415	0.0072687245429465	-0.0034050903369697997	-0.258903659598261	-0.264806659598261	-0.0047826146237276	10	1.651035620938786	2.033306426822988	7.0571636795725	9.090470106395488	0.03471573563670607	0.025012599031098145	0.11017107918684292	0.008426426629348418	0.0008104418352629551	-0.00024297705086077535	0.008993891413750597	40.33588415191513	1002.1752735326071	0.18755708216298167	0.034099601098094144	-0.2543086399644887	0.0023560179590669823	0	0.00039067058041363683	-0.0008449047539954012	-0.992643982040933	0.18755708216298167	0.03449027167850778	-0.2551535447184841
22	14	15	12	-4.0	0	420	101290	286.43	-884.3	-304.8	-53.2	37.0	-1162.0	164.7	0	1.23194272411362	984.38867652	39.9763412793298	456208.297709338	123.03	123.03	2.18	2.11	0	0	0	0	0	101290	1.4456734455218e-05	1.59907309590204	1.59907309590204	-8.14528336643401	-2.81694942486173	-29.5658659682708	-1.48374381982093	-6.7136145178895	-1.09589862735209	-0.0381013504875369	-0.0131768991346106	-0.138300826508606	-0.0049696324430509	-0.1903532223674	-0.0036705887499104	-0.135306116791306	-0.0476559154858548	0.006876899134610599	-0.157900826508606	-0.0381013504875368	0.0131768991346106	-0.007318475139162701	-0.178814243635889	-0.179614243635889	-0.0056395260033162	10	17.727808894530703	20.50386236114276	-8.146420049267078	12.357442311875683	0.050996582769710336	0.25222705297273734	0.6449533433865254	0.008426426629348418	0.0030121688331649957	-0.00197188427054663	0.009466711191966784	40.35478575673272	1003.1147426780277	-0.15495314644987868	0.050044582622419655	-0.17547615357115337	-0.0013092651842144508	0	0.00012064484040083996	0.0004695228973643	-4.001309265184214	-0.15495314644987868	0.0501652274628205	-0.17500663067378908
23	14	15	32	-4.0	0	420	101290	286.43	-884.7	-305.1	-53.0	36.8	-1161.8	165.5	0	1.23194272411362	984.38867652	39.9763412793298	456208.297709338	123.03	123.03	4.43	4.34	0	0	0	0	0	101290	1.4456734455218e-05	1.59907309590204	1.59907309590204	-8.1489687442232	-2.81188286512765	-29.5609682880032	-1.48489378347092	-6.70716687564013	-1.10108795143683	-0.0381185896509285	-0.0131531991895614	-0.138277916534323	-0.0049734841164914	-0.190170410340351	-0.0036879698051738	-0.135282060081321	-0.0476715145364913	0.0068531991895614	-0.157877916534323	-0.0381185896509285	0.0131531991895614	-0.0073168662432849	-0.178626572699467	-0.179426572699467	-0.005656976950105599	10	17.731494786618246	20.50808608193427	-8.150105941354623	12.357980140579647	0.05099909823046832	0.25227901082482673	0.6450862014206867	0.008426426629348418	0.0030125358057001422	-0.0019722110284677184	0.00946675140658084	40.354787364365855	1003.1148226011645	-0.15493065181307672	0.0500470471372595	-0.17529197209444938	-0.0013092651842144508	0	0.00012064484040083996	0.0004695228973643	-4.001309265184214	-0.15493065181307672	0.05016769197766034	-0.1748224491970851
24	14	15	50	-4.0	0	420	101290	286.43	-885.1	-304.4	-52.6	36.6	-1162.8	165.0	0	1.23194272411362	984.38867652	39.9763412793298	456208.297709338	123.03	123.03	7.98	7.86	0	0	0	0	0	101290	1.4456734455218e-05	1.59907309590204	1.59907309590204	-8.15264684310623	-2.80688370351389	-29.5733291430201	-1.48929807791228	-6.71625037078629	-1.09782680890442	-0.0381357947656391	-0.0131298145140111	-0.138335737146343	-0.0049882358035765	-0.190427957532973	-0.0036770469763715	-0.135338539677104	-0.0476927111024114	0.006829814514011099	-0.157935737146343	-0.0381357947656391	0.0131298145140111	-0.007324245073207	-0.178879270579438	-0.179679270579438	-0.005645566007609499	10	17.73517339878382	20.512301449066488	-8.1537845535202	12.358516895546288	0.05100160866928515	0.2523308659148693	0.6452187966887216	0.008426426629348418	0.0030127768422691338	-0.0019725371170745427	0.00946666635454301	40.354783964296566	1003.1146535674523	-0.15498741914674358	0.050049519144994344	-0.1755399821907949	-0.0013092651842144508	0	0.00012064484040083996	0.0004695228973643	-4.001309265184214	-0.15498741914674358	0.050170163985395186	-0.1750704592934306
25	14	16	12	-4.0	0	420	101290	286.43	-885.8	-302.3	-51.9	36.4	-1163.0	164.0	0	1.23194272411362	984.38867652	39.9763412793298	456208.297709338	123.03	123.03	0.64	0.64	0	0	0	0	0	101290	1.4456734455218e-05	1.59907309590204	1.59907309590204	-8.15909520269594	-2.78571525850967	-29.5476058938864	-1.48157399451652	-6.71207708869735	-1.09128564499952	-0.0381659583827588	-0.0130307944669363	-0.138215411003368	-0.0049623648581184	-0.190309631154335	-0.0036551380862229	-0.135216402535	-0.0477144077150427	0.0067307944669363	-0.15781541100336802	-0.0381659583827588	0.0130307944669363	-0.0072690677521119	-0.178752442495779	-0.179552442495779	-0.0056275594617664	10	17.741622658248858	20.519691707489795	-8.160233812985233	12.359457894504562	0.05100600978424126	0.25242177674278976	0.6454512588363234	0.008426426629348418	0.0030135433972369426	-0.0019731087505167055	0.009466861276068654	40.35479175654599	1003.1150409574751	-0.1548692794236061	0.05005381877052719	-0.17541545396944838	-0.0013092651842144508	0	0.00012064484040083996	0.0004695228973643	-4.001309265184214	-0.1548692794236061	0.05017446361092803	-0.1749459310720841
26	14	16	34	-4.0	0	420	101290	286.43	-884.7	-304.7	-53.1	36.3	-1162.1	165.5	0	1.23194272411362	984.38867652	39.9763412793298	456208.297709338	123.03	123.03	0.43	0.43	0	0	0	0	0	101290	1.4456734455218e-05	1.59907309590204	1.59907309590204	-8.14896656307965	-2.80550532805733	-29.6052083345473	-1.48465863686086	-6.71105828508854	-1.10107520126195	-0.0381185794481508	-0.0131233668603186	-0.138484859060829	-0.0049726965194638	-0.190280744695427	-0.0036879270999023	-0.135488499217944	-0.0476859399394839	0.0068233668603186	-0.158084859060829	-0.0381185794481508	0.0131233668603186	-0.0073076897375568	-0.178736909930226	-0.179536909930226	-0.0056575744695428	10	17.7314926051703	20.508083582182717	-8.150103759906676	12.357979822276041	0.0509990967417411	0.2522789800742805	0.645086122790471	0.008426426629348418	0.0030122143232080394	-0.0019722108350873372	0.00946643011746912	40.35477452040268	1003.1141840663767	-0.1551338298875484	0.050047077533893196	-0.1754003612013995	-0.0013092651842144508	0	0.00012064484040083996	0.0004695228973643	-4.001309265184214	-0.1551338298875484	0.05016772237429404	-0.17493083830403522
27	14	17	22	4.995	0	420	101290	286.43	1510.4	-117.8	1455.8	1521.6	-14.1	58.0	0	1.23194272411362	984.38867652	39.9763412793298	456208.297709338	89.48	89.48	0.28	0.27	0	0	0	0	0	101290	1.4456734455218e-05	2.19863615320549	2.19863615320549	13.8992998905272	-1.10453917841426	182.16699028537	-0.135437210825326	-15.6050120769356	-0.383788295681904	0.0650170255393102	-0.0051667244061027	0.852126074916564	-0.0004536316498323	-0.44245381173012	-0.0012854555752853	0.854550910698367	-0.0094234912469319	0.0061617244061027004	0.846112574916564	0.0650170255393102	0.0051667244061027	-0.0010902119929072	-0.455973553369025	-0.460779053369025	-0.0044359889594843	10	-1.1826243009750783	-1.6490422388895354	13.901239552398549	12.252197313509013	0.049303344885390885	-0.02028559579735155	-0.09806058903484052	0.008426426629348418	-0.0006061459111695299	0.00020869873338744133	0.00802897945156633	40.29731050201034	1000.259407566966	0.8326876323362987	0.048521067687623605	-0.4487387964896555	0.008886912536689016	0	0.005558470773196196	-0.0031869853205887247	5.003886912536689	0.8326876323362987	0.0540795384608198	-0.4519257818102442
28	14	18	5	2.005	0	420	101290	286.43	431.6	-181.4	1065.1	1133.9	-690.5	90.4	0	1.23194272411362	984.38867652	39.9763412793298	456208.297709338	103.61	103.61	0.26	0.26	0	0	0	0	0	101290	1.4456734455218e-05	1.89879319552965	1.89879319552965	3.97673914291615	-1.73446367686702	117.85247495226	-0.720147591677829	-13.2815470041133	-0.597524808367844	0.0186020700650086	-0.0081133344890791	0.551280815162798	-0.0024120530697941	-0.376575876306318	-0.0020013418984626	0.55159413395946	-0.0006968204758435	0.0083178344890791	0.538291815162798	0.0186020700650086	0.0081133344890791	-0.0040264233871952	-0.37452242497084104	-0.381818924970841	-0.0051624624716752	10	5.782031781108117	7.44546733895689	3.977294101032635	11.422761439989525	0.04512551792547731	0.09158997713859018	0.33021993232321945	0.008426426629348418	0.0009373599720231021	-0.0008263049742959253	0.008537481627075594	40.31763855851978	1001.2688277045182	0.5292168824674817	0.044364757634349446	-0.3682084411729096	0.005835281720596123	0	0.002396498551339183	-0.002092622956315063	2.010835281720596	0.5292168824674817	0.04676125618568863	-0.37030106412922464
29	14	18	43	6.995	0	420	101290	286.43	64.9	-69.2	2172.1	2165.3	-1519.9	28.7	0	1.23194272411362	984.38867652	39.9763412793298	456208.297709338	123.03	123.03	0.7	0.69	0	0	0	0	0	101290	1.4456734455218e-05	1.59907309590204	1.59907309590204	0.600409954973968	-0.690604557942096	228.578059627886	-0.8214147921198	-21.7913388331947	-0.185619758951046	0.0028085493286754	-0.0032304543779134	1.06922403700929	-0.0027512361268761	-0.617856678477045	-0.0006217124302938	1.06160760324252	-0.127425374260565	0.0069294543779134	1.06313153700929	0.0028085493286754	0.0032304543779134	-0.0040557802525165	-0.616439776441976	-0.618648276441976	-0.0043499828535098	10	15.162812422810063	20.725335731416283	0.6004937428126319	21.325829474228915	0.09353632832594261	0.25495149456877025	0.6519198352656208	0.008426426629348418	0.0031858288275496164	-0.001988986930368981	0.009623268526529054	40.36104434616895	1003.4259112319143	1.0429615529844243	0.09176173488909832	-0.6047445345925022	0.01057892276630673	0	0.007876556770248877	-0.0037937665555581707	7.005578922766307	1.0429615529844243	0.09963829165934719	-0.6085383011480604
30	14	19	4	6.995	0	420	101290	286.43	64.3	-68.6	2172.0	2164.9	-1519.6	28.6	0	1.23194272411362	984.38867652	39.9763412793298	456208.297709338	123.03	123.03	0.64	0.64	0	0	0	0	0	101290	1.4456734455218e-05	1.59907309590204	1.59907309590204	0.594888161581338	-0.68226764609569	228.554731926435	-0.817519686252932	-21.7816556430377	-0.184953513791825	0.0027827199282841	-0.0031914566431565	1.06911491656632	-0.0027381899094452	-0.617582127943308	-0.0006194809173372	1.06149614943188	-0.127437722422013	0.0068904566431565	1.06302241656632	0.002782719928284	0.0031914566431565	-0.0040321930864154	-0.6161579458150691	-0.618366445815069	-0.0043448954407796	10	15.168334986774767	20.732601592075437	0.5949711788479274	21.327572770923364	0.09354448184097833	0.2550408751249352	0.6521483844551424	0.008426426629348418	0.00318804310098531	-0.0019895469454241704	0.009624922784909559	40.36111047736654	1003.4291994427441	1.042851085393914	0.09176943298673078	-0.6044660700974419	0.01057892276630673	0	0.007876556770248877	-0.0037937665555581707	7.005578922766307	1.042851085393914	0.09964598975697965	-0.6082598366530001
31	14	19	24	6.995	0	420	101290	286.43	62.4	-67.0	2172.5	2164.3	-1520.7	27.2	0	1.23194272411362	984.38867652	39.9763412793298	456208.297709338	123.03	123.03	0.43	0.43	0	0	0	0	0	101290	1.4456734455218e-05	1.59907309590204	1.59907309590204	0.577412510806783	-0.674003455404189	228.521479159144	-0.82656633519803	-21.7775250392579	-0.175835164617444	0.0027009737366288	-0.0031527990775609	1.06895936944976	-0.0027684906389228	-0.617465011636182	-0.000588940036035	1.06133180481212	-0.127499917206998	0.0068517990775609	1.06286686944976	0.0027009737366288	0.0031527990775609	-0.0040551729826141004	-0.6160177891011771	-0.618226289101177	-0.0043173804363093	10	15.185813076294691	20.755596026511164	0.5774930893280039	21.33308911583917	0.0935702821544628	0.2553237398033233	0.6528716792718648	0.008426426629348418	0.0031930672570105348	-0.001991318791088012	0.009628175095270941	40.3612404928355	1003.4356641572434	1.0426917721858533	0.09179415233262088	-0.6043246794854384	0.01057892276630673	0	0.007876556770248877	-0.0037937665555581707	7.005578922766307	1.0426917721858533	0.09967070910286975	-0.6081184460409966
32	14	19	42	6.995	0	420	101290	286.43	63.1	-67.9	2171.9	2164.4	-1520.9	27.6	0	1.23194272411362	984.38867652	39.9763412793298	456208.297709338	123.03	123.03	0.28	0.27	0	0	0	0	0	101290	1.4456734455218e-05	1.59907309590204	1.59907309590204	0.5838591273636	-0.68342575370122	228.485896705875	-0.825165447297513	-21.7868809748832	-0.17845351424612	0.0027311292003297	-0.0031968739456364	1.06879292471577	-0.0027637985230289	-0.617730283419333	-0.0005977099025632	1.06117027137701	-0.127449716103366	0.0068958739456364	1.0627004247157699	0.0027311292003297	0.0031968739456364	-0.0040617779409422	-0.6162915602912831	-0.618500060291283	-0.0043268893966541995	10	15.179365560105774	20.74711374257278	0.58394060551692	21.331054348089697	0.0935607654098419	0.25521939548796585	0.6526048672298574	0.008426426629348418	0.0031935517852055353	-0.0019906652641922084	0.009629313150361744	40.361285988114204	1003.4379263082761	1.0425261365911465	0.09178460931294065	-0.6045918910176817	0.01057892276630673	0	0.007876556770248877	-0.0037937665555581707	7.005578922766307	1.0425261365911465	0.09966116608318952	-0.6083856575732399
33	14	20	1	6.995	0	420	101290	286.43	63.5	-68.0	2171.6	2163.9	-1520.1	27.9	0	1.23194272411362	984.38867652	39.9763412793298	456208.297709338	123.03	123.03	0.26	0.26	0	0	0	0	0	101290	1.4456734455218e-05	1.59907309590204	1.59907309590204	0.587539717520798	-0.681322769912416	228.456460339241	-0.826221647377322	-21.7804026162977	-0.180400734098485	0.002748345968522	-0.0031870367774494	1.06865522965081	-0.0027673361459748	-0.61754660048235	-0.0006042318956612	1.06103569791129	-0.127415858602819	0.0068860367774494	1.06256272965081	0.0027483459685219	0.0031870367774494	-0.0040617429687594	-0.61611272995152	-0.61832122995152	-0.0043333585861343	10	15.175684456318379	20.742270835378317	0.5876217093043146	21.329892544682632	0.09355533157773621	0.25515982075087656	0.6524525325559426	0.008426426629348418	0.0031942737802742108	-0.0019902920956684196	0.00963040831395421	40.36132976874773	1003.4401032048183	1.0423887941290892	0.09177907952757941	-0.6044151443489852	0.01057892276630673	0	0.007876556770248877	-0.0037937665555581707	7.005578922766307	1.0423887941290892	0.09965563629782828	-0.6082089109045434
34	14	20	45	-3.995	0	420	101290	286.43	1338.2	-24.6	-387.2	-393.5	680.5	-5.5	0	1.23194272411362	984.38867652	39.9763412793298	456208.297709338	82.02	82.02	0.7	0.69	0	0	0	0	0	101290	1.4456734455218e-05	2.39860964385305	2.39860964385305	12.3013161065163	-0.436407762080044	-31.1672221507133	-0.598352785048413	-4.34575125394945	0.009798370259837	0.0575421057005602	-0.0020413930799528	-0.145791521481117	-0.0020041151128941	-0.123216451077459	3.28185351688194e-05	-0.149446192706176	0.047245075403282	-0.0042501069200472	-0.16538702148111697	0.0575421057005602	0.0020413930799528	-0.0009729335535805998	-0.138626864371938	-0.139434864371938	-0.0023891457609891	10	-2.7246978690455244	-3.202729628215166	12.303032768075354	9.100303139860188	0.03576122539074875	-0.03939818953935659	-0.2266707158349259	0.008426426629348418	0.0009929417087870653	0.00041614879693571737	0.0098355171350712	40.36952926898011	1003.8478471094772	-0.16218106325392798	0.03506800899608189	-0.13593964059607858	-0.0013031492260756137	0	0.00011952033877044	0.0004673296194706177	-3.9963031492260757	-0.16218106325392798	0.03518752933485233	-0.13547231097660795
35	14	21	13	-3.995	0	420	101290	286.43	1339.3	-25.9	-386.2	-392.3	680.9	-4.5	0	1.23194272411362	984.38867652	39.9763412793298	456208.297709338	82.02	82.02	0.47	0.46	0	0	0	0	0	101290	1.4456734455218e-05	2.39860964385305	2.39860964385305	12.3114232519622	-0.444825071323136	-31.0223170684566	-0.603939467308831	-4.3512073682567	0.0032804717423622	0.0575893840914689	-0.0020807668911764	-0.145113696158398	-0.0020228270745141	-0.123371150001149	1.09875698092698e-05	-0.148773308266311	0.0473394626108486	-0.004210733108823601	-0.164709196158398	0.0575893840914689	0.0020807668911764	-0.0010041916581469	-0.138794888850443	-0.139602888850443	-0.0024087459460224	10	-2.7348064249541046	-3.214650852205826	12.313141323983935	9.098490471778108	0.03575274742110133	-0.039544837772847	-0.22751443125560517	0.008426426629348418	0.000992924116892249	0.00041778450513034617	0.009837135251371013	40.369593955349536	1003.8510641558929	-0.16151585967921958	0.035059583012352354	-0.13610397181589323	-0.0013031492260756137	0	0.00011952033877044	0.0004673296194706177	-3.9963031492260757	-0.16151585967921958	0.035179103351122794	-0.1356366421964226
36	14	21	35	-3.995	0	420	101290	286.43	1339.8	-26.4	-385.8	-392.8	680.9	-4.1	0	1.23194272411362	984.38867652	39.9763412793298	456208.297709338	82.02	82.02	0.3	0.29	0	0	0	0	0	101290	1.4456734455218e-05	2.39860964385305	2.39860964385305	12.3160253191118	-0.4478767188685	-31.0285005285093	-0.621678471225317	-4.35605626784585	0.0006740690779112	0.0576109112705183	-0.0020950416422759	-0.1451426206498	-0.0020822418657962	-0.123508632375103	2.25771828916505e-06	-0.14880366226114	0.0473589223292066	-0.0041964583577241005	-0.16473812064979998	0.0576109112705183	0.0020950416422759	-0.0010680838878201998	-0.138938438723711	-0.139746438723711	-0.0024130032506141	10	-2.7394091343270865	-3.220079024140496	12.317744033356915	9.097665009216419	0.035748886677586134	-0.03961161210960346	-0.22789860593187727	0.008426426629348418	0.0009923686215906643	0.0004185295342873171	0.0098373247852264	40.36960153221962	1003.8514409766168	-0.1615441627508966	0.03505578396079843	-0.13624468744093263	-0.0013031492260756137	0	0.00011952033877044	0.0004673296194706177	-3.9963031492260757	-0.1615441627508966	0.03517530429956887	-0.135777357821462
37	14	21	55	-3.995	0	420	101290	286.43	1337.9	-26.5	-385.0	-391.9	680.1	-4.3	0	1.23194272411362	984.38867652	39.9763412793298	456208.297709338	82.02	82.02	0.48	0.47	0	0	0	0	0	101290	1.4456734455218e-05	2.39860964385305	2.39860964385305	12.2985386377996	-0.45194139933319	-30.9438108834809	-0.624280002154733	-4.3480468470484	0.0019690389966538	0.0575291134811021	-0.0021140550771728	-0.144746466249427	-0.0020909553999897	-0.123281538750048	6.59507385889859e-06	-0.148402771658418	0.0473049231446122	-0.004177444922827201	-0.16434196624942699	0.0575291134811021	0.0021140550771728	-0.0010818200396745998	-0.138688290148907	-0.139496290148907	-0.0024077194445107	10	-2.721920012730102	-3.199453701089115	12.30025491175993	9.100801210670816	0.035763554901185074	-0.03935789091511674	-0.22643886462271515	0.008426426629348418	0.0009949418129093258	0.0004156994298493758	0.009837067872107119	40.36959126177309	1003.8509301961856	-0.16115577102802656	0.03507018563996118	-0.13599945796914606	-0.0013031492260756137	0	0.00011952033877044	0.0004673296194706177	-3.9963031492260757	-0.16115577102802656	0.03518970597873162	-0.13553212834967543
38	14	22	16	-3.995	0	420	101290	286.43	1339.1	-27.6	-385.7	-392.0	681.0	-3.7	0	1.23194272411362	984.38867652	39.9763412793298	456208.297709338	82.02	82.02	0.71	0.72	0	0	0	0	0	101290	1.4456734455218e-05	2.39860964385305	2.39860964385305	12.3095833713896	-0.462086650058184	-30.9707451360456	-0.625288630430627	-4.34799577822059	-0.0019534097872495	0.0575807776463158	-0.0021615117138873	-0.144872457126714	-0.0020943336865483	-0.123280090779523	-6.54272558618651e-06	-0.148532055807142	0.0473476840615257	-0.004129988286112701	-0.164467957126714	0.0575807776463158	0.0021615117138873	-0.0010994487128463998	-0.138701403876704	-0.139509403876704	-0.0024195971414337	10	-2.732966287624299	-3.212480717777983	12.311301186654129	9.098820468876145	0.03575429083956197	-0.039518141992235106	-0.22736084166756013	0.008426426629348418	0.0009935176669901308	0.000417486689620761	0.00983743098595931	40.36960577773636	1003.8516521190686	-0.1612792032609125	0.035061075971903555	-0.13601221963966031	-0.0013031492260756137	0	0.00011952033877044	0.0004673296194706177	-3.9963031492260757	-0.1612792032609125	0.035180596310673995	-0.13554489002018968
39	14	22	57	3.995	0	420	101290	286.43	1169.0	-98.2	1338.1	1380.8	-222.8	50.1	0	1.23194272411362	984.38867652	39.9763412793298	456208.297709338	93.74	93.74	0.78	0.74	0	0	0	0	0	101290	1.4456734455218e-05	2.09871946862415	2.09871946862415	10.7602887152661	-0.900542507992106	161.23313725072	-0.289347625212894	-14.744524655956	-0.330780552274794	0.0503336118884381	-0.004212485211666	0.754203383262318	-0.0009691372097855	-0.418056141450779	-0.00110791212213	0.755877483526499	-0.0023336040174553	0.0042179852116659994	0.745492883262318	0.0503336118884381	0.004212485211666	-0.0012755112188402996	-0.426339319367271	-0.432242819367271	-0.0041507152018261	10	0.7546898328442175	1.0224435659970297	10.761790324837076	11.784233890834106	0.04691564871273427	0.012577529196211117	0.055399279512208584	0.008426426629348418	-0.00013382701913988596	-0.00012404072874977768	0.008168558881458754	40.3028903769353	1000.5364339359011	0.7334612991781227	0.046158472373395286	-0.4194585865198711	0.007927144531094703	0	0.00442269578619312	-0.0028427975576989836	4.002927144531095	0.7334612991781227	0.05058116815958841	-0.4223013840775701
40	14	23	29	4.5	0	420	101290	286.43	735.1	-82.5	1535.3	1562.4	-650.2	34.2	0	1.23194272411362	984.38867652	39.9763412793298	456208.297709338	103.61	103.61	0.54	0.5	0	0	0	0	0	101290	1.4456734455218e-05	1.89879319552965	1.89879319552965	6.76917171719442	-0.830022657393585	173.948312253356	-0.447953865223165	-16.2049061733542	-0.233387173079251	0.0316642862506158	-0.0038826131344028	0.813681404773792	-0.0015003709076084	-0.459462797579423	-0.0007817039920453	0.813657447821405	-0.0322740314055878	0.0043826131344028	0.8063314047737921	0.0316642862506158	0.0038826131344028	-0.0017753665712513	-0.463037470648559	-0.468387470648559	-0.0039274322370799995	10	5.326760489289948	7.177883053271532	6.7701163622041625	13.947999415475694	0.05713572454096699	0.08829830483746616	0.3183520856606679	0.008426426629348418	0.0007488157844943565	-0.000799329337446971	0.008375913076395803	40.3111796389978	1000.948045188944	0.7929917124039686	0.056190489140000195	-0.45537712481856396	0.008420388516779887	0	0.004990197969893761	-0.003019682537196376	4.50842038851678	0.7929917124039686	0.06118068710989395	-0.4583968073557603
41	14	24	5	1.507	0	420	101290	286.43	912.6	-148.3	871.0	925.4	-226.4	86.0	0	1.23194272411362	984.38867652	39.9763412793298	456208.297709338	93.74	93.74	0.36	0.33	0	0	0	0	0	101290	1.4456734455218e-05	2.09871946862415	2.09871946862415	8.40107253074764	-1.25503834429761	104.62525571288	-0.458182062404493	-11.8501053019768	-0.571764900047403	0.0392978604383864	-0.0058707172826469	0.489407594362162	-0.0015346290995329	-0.335989759854934	-0.0019150619932599	0.490271815316289	0.0264132989394271	0.0058242172826469	0.47571739436216204	0.0392978604383864	0.0058707172826469	-0.0024392407046994	-0.33986457846770296	-0.347065978467703	-0.0050462219319691	10	1.0496003497291913	1.3553002224515502	8.402244909226757	9.757545131678308	0.0373859900689686	0.01667214571485241	0.0734345232769258	0.008426426629348418	0.00022941610646230823	-0.00016359784746226163	0.008492244888348464	40.315830159214066	1001.1790082949819	0.4677393476629276	0.0367590061112614	-0.33416485945266367	0.005280269362268606	0	0.0019623012028799048	-0.00189358687585037	1.5122802693622686	0.4677393476629276	0.03872130731414131	-0.33605844632851406
42	14	24	53	1.507	0	420	101290	286.43	-334.7	-157.2	1125.1	1149.7	-1301.9	91.1	0	1.23194272411362	984.38867652	39.9763412793298	456208.297709338	115.79	115.79	2.83	2.51	0	0	0	0	0	101290	1.4456734455218e-05	1.69905832100205	1.69905832100205	-3.07420352884078	-1.33931491127358	107.528776795585	-0.993146236146831	-13.7087776099463	-0.602205596678192	-0.0143802616622367	-0.006264939419776	0.502989451425108	-0.0033264312140116	-0.388689279942704	-0.002017019670552	0.502437289488842	-0.0276034472758405	0.0062184394197760005	0.489299251425108	-0.0143802616622367	0.006264939419776	-0.0043388159243459	-0.37743476050813596	-0.384636160508136	-0.0051981014234052	10	12.526477796122093	15.798113319493877	-3.0746325371661443	12.723480782327734	0.051257869135533714	0.19433955880706594	0.561019278649439	0.008426426629348418	0.001992703856874691	-0.0015924749644084686	0.008826655521814641	40.329198672824944	1001.8430895863002	0.48077453199930253	0.050364839049196135	-0.3708589780488194	0.005280269362268606	0	0.0019623012028799048	-0.00189358687585037	1.5122802693622686	0.48077453199930253	0.05232714025207604	-0.3727525649246698
1	13	14	13	1.507	0	420	101290	286.43	1350.6	-54.1	221.7	251.1	1585.4	29.2	0	1.23194272411362	984.38867652	39.9763412793298	456208.297709338	82.02	82.02	0.0	0.0	0	0	0	0	0	101290	1.4456734455218e-05	2.39860964385305	2.39860964385305	12.435989179542	-0.509402035802516	67.7222546752013	-0.194778750306927	7.32933430513595	-0.18853440075181	0.0581720685546127	-0.0023828398144082	0.316785708379318	-0.0006523894379954	0.207810919002413	-0.0006314746940077	0.318206010191247	0.0498207755005536	0.0023363398144082	0.30309550837931803	0.0581720685546127	0.0023828398144082	-0.0006083347637547	0.198616348807595	0.191414948807595	-0.0037149274601444	-10	-2.9858793759136155	-2.363632212805527	12.437724634869562	10.074092422064036	0.038866502881213266	-0.02907608219596637	-0.16728424432932648	0.008426426629348418	0.0018601626570333243	0.00030272965136022873	0.010589318937741971	40.39966350710064	1005.3470709492269	0.29677689921647143	0.03805625583220158	0.1944758087904324	0.005280269362268606	0	0.0019623012028799048	-0.00189358687585037	1.5122802693622686	0.29677689921647143	0.04001855703508149	0.19258222191458202
2	13	14	50	3.993	0	420	101290	286.43	1135.5	-122.4	742.2	807.8	1221.3	71.3	0	1.23194272411362	984.38867652	39.9763412793298	456208.297709338	89.48	89.48	0.0	0.0	0	0	0	0	0	101290	1.4456734455218e-05	2.19863615320549	2.19863615320549	10.4546809731635	-1.05854748961859	125.024966837146	-0.108475449460363	4.26044902777297	-0.461149831009785	0.0489040646069354	-0.004951588188554	0.584831720009302	-0.0003633262735192	0.12079785025006	-0.0015445693054817	0.586817493994769	0.0080608315835323	0.004959288188554001	0.576117020009302	0.0489040646069354	0.004951588188554	-0.0008492209129505001	0.112918994478198	0.107014094478198	-0.0045569165664354995	-10	1.058149853163238	0.8675455520449074	10.456139934853702	11.32368548689861	0.04476163307780507	0.010672060417581631	0.05158875002823881	0.008426426629348418	0.0012725953864087683	-0.00010549712104664246	0.009593524894710543	40.3598553045925	1003.3667899890419	0.5652200934952181	0.04391499218826608	0.11078319577387696	0.007925157857825575	0	0.00442047926284185	-0.0028420851057063055	4.000925157857825	0.5652200934952181	0.048335471451107934	0.10794111066817066
3	13	15	28	3.507	0	420	101290	286.43	-763.6	-193.7	951.5	1006.9	-172.7	109.5	0	1.23194272411362	984.38867652	39.9763412793298	456208.297709338	123.03	123.03	0.0	0.0	0	0	0	0	0	101290	1.4456734455218e-05	1.59907309590204	1.59907309590204	-7.01426831413918	-1.72549539776966	115.860611394856	-0.922203864035574	4.70285913701404	-0.708664442667523	-0.0328107793710367	-0.0080713833954478	0.54196343624425	-0.0030888177464295	0.133341643117158	-0.0023735915583743	0.538941467660997	-0.065901501530849	0.0086136833954478	0.53222813624425	-0.0328107793710367	0.0080713833954478	-0.0045564228285749	0.148834558675431	0.142589458675431	-0.0056863544742198	-10	18.02259167260127	14.913471696547276	-7.015247162635993	7.898224533911283	0.02874052349079278	0.18345719208206787	0.4691064182335063	0.008426426629348418	-0.0005618000249194559	-0.0015174323543697137	0.006347194250059248	40.230078882836374	996.924546758275	0.52553561084219	0.028379124552194837	0.1469630321686426	0.007434970263769788	0	0.0038905588263575394	-0.0026662961958750257	3.51443497026377	0.52553561084219	0.03226968337855238	0.14429673597276757
4	13	16	3	1.5	0	420	101290	286.43	811.2	-116.2	290.5	336.4	1185.3	66.9	0	1.23194272411362	984.38867652	39.9763412793298	456208.297709338	93.74	93.74	0.0	0.0	0	0	0	0	0	101290	1.4456734455218e-05	2.09871946862415	2.09871946862415	7.47361865580753	-1.03727706828698	67.3388120711723	-0.470345426784413	7.36587019235908	-0.433484466846169	0.0349594914019279	-0.0048520911248284	0.314992071449734	-0.0015753689155521	0.208846832495278	-0.0014519072910156	0.315799264333248	0.0267019804856277	0.0048020911248284	0.301292071449734	0.0349594914019279	0.0048520911248284	-0.0022039302256693	0.206193396073056	0.198993396073056	-0.0045774257900561	-10	1.9732389495833642	1.5722646899545643	7.4746616071260705	9.046926297080635	0.03406307833322379	0.01934112130950883	0.08519035565648218	0.008426426629348418	0.0012334821114465154	-0.00018917188786116552	0.00947073685293377	40.35494668792941	1003.122743353775	0.2956652168694514	0.03342692489109844	0.20234258031964092	0.005272391036445916	0	0.0019564499426349777	-0.0018907615854422473	1.5052723910364458	0.2956652168694514	0.03538337483373342	0.20045181873419868
5	13	16	54	-0.5	0	420	101290	286.43	1374.6	-11.1	-206.4	-207.0	1807.6	0.5	0	1.23194272411362	984.38867652	39.9763412793298	456208.297709338	82.02	82.02	0.0	0.0	0	0	0	0	0	101290	1.4456734455218e-05	2.39860964385305	2.39860964385305	12.6455546239127	-0.196179023760226	18.8497604501696	-0.321885267501242	10.1084818169733	-0.0082480544932223	0.0591523569113012	-0.0009176704365367	0.0881738912212269	-0.0010781183698594	0.286608961830598	-2.76259275044642e-05	0.0876543386872302	0.0599195571625747	0.0004676704365367	0.0716238912212269	0.0591523569113012	0.0009176704365367	-0.0006369566849916	0.276136694452648	0.269936694452648	-0.003215957875622427	-10	-3.8980350862721433	-3.008910780782829	12.647319324317708	9.63840854353488	0.037179480291754816	-0.03701393842425564	-0.21295333660230198	0.008426426629348418	0.0021308547641426564	0.00038965224318183864	0.010946933636672913	40.41395963435161	1006.0587161166517	0.07008114571943226	0.036378651476101635	0.2701888377251848	0.0029488693704001964	0	0.0006120185471574724	-0.0010575105085146414	-0.4970511306295998	0.07008114571943226	0.036990670023259106	0.26913132721667016
6	13	17	26	-4.002	0	420	101290	286.43	1224.6	-38.6	-992.2	-991.1	2114.6	5.8	0	1.23194272411362	984.38867652	39.9763412793298	456208.297709338	89.48	89.48	0.0	0.0	0	0	0	0	0	101290	1.4456734455218e-05	2.19863615320549	2.19863615320549	11.2603549167885	-0.553293844200558	-69.718896620592	-0.628777649625147	15.300404364475	-0.0579951589204804	0.0526727812891854	-0.0025881533805632	-0.326125439256324	-0.0021060197625083	0.433817173527208	-0.0001942482384498	-0.329006321407515	0.0297836279315252	-0.0037084466194368003	-0.345731839256324	0.0526727812891854	0.0025881533805632	-0.0012419412735992	0.41976699377173704	0.418971193771737	-0.0025950178656141444	-10	-1.6793143930501557	-1.2094847247300535	11.261926311122211	10.052441586392158	0.040217340477201026	-0.014878404973705715	-0.07192222354203497	0.008426426629348418	0.0018809172191003505	0.00015197013878300638	0.010459313987231775	40.39446638483105	1005.0884264396367	-0.3386115079266589	0.03938906619962338	0.4111219118396206	-0.0013117115216590204	0	0.00012109610684254912	0.000470400192093247	-4.0033117115216585	-0.3386115079266589	0.03951016230646593	0.41159231203171387
7	13	18	19	6.994	0	420	101290	286.43	801.4	-188.2	1375.1	1457.3	666.5	109.5	0	1.23194272411362	984.38867652	39.9763412793298	456208.297709338	103.61	103.61	0.0	0.0	0	0	0	0	0	101290	1.4456734455218e-05	1.89879319552965	1.89879319552965	7.38080653695596	-1.62674250273028	189.98489062869	-0.424377293946911	-0.625906319872294	-0.706703711690457	0.0345253423477125	-0.0076094450568678	0.888696019466928	-0.0014214038433853	-0.0177465185959568	-0.0023670243112893	0.886287143160088	-0.0739439933308971	0.0113082450568678	0.882605019466928	0.0345253423477125	0.0076094450568678	-0.0037477908113248	-0.0252673888185595	-0.0274775888185595	-0.006044717980626901	-10	8.379733917080433	7.17483695375075	7.381836536246034	14.556673489996784	0.06187533382722417	0.0882608334239512	0.31821698564184986	0.008426426629348418	0.0009864453067816765	-0.0007990212475952204	0.008613850688534874	40.32069151418386	1001.420470766146	0.8675939950960404	0.06082298070940681	-0.02483765028209256	0.010578161390626189	0	0.00787542304366858	-0.003793493514374596	7.004578161390626	0.8675939950960404	0.06869840375307538	-0.028631143796467157
8	13	19	16	6.995	0	420	101290	286.43	-340.3	-159.9	1588.6	1634.3	-229.5	83.0	0	1.23194272411362	984.38867652	39.9763412793298	456208.297709338	123.03	123.03	0.0	0.0	0	0	0	0	0	101290	1.4456734455218e-05	1.59907309590204	1.59907309590204	-3.12296116643997	-1.50622532733433	191.909260353277	-0.858114453927688	-1.17829483656238	-0.531751660831537	-0.0146083362123213	-0.007045699520592	0.897697681170466	-0.0028741575015319	-0.0334085638132568	-0.0017810421651047	0.889236879480682	-0.123823674784689	0.010744699520592	0.8916051811704659	-0.0146083362123213	0.007045699520592	-0.0051039345530872	-0.0270826608897516	-0.0292911608897516	-0.0056283305344808	-10	18.88670314456747	16.26419769309354	-3.123396978944777	13.140800714148762	0.05525440232012116	0.2000730682268558	0.5115937912039058	0.008426426629348418	2.334971324454045e-05	-0.0016315090309255839	0.0068182673116673745	40.24891066031472	997.8580898081041	0.8795700042273102	0.054508560412901655	-0.026717090317952368	0.01057892276630673	0	0.007876556770248877	-0.0037937665555581707	7.005578922766307	0.8795700042273102	0.06238511718315053	-0.030510856873510538
9	13	19	59	6.995	0	420	101290	286.43	-338.6	-159.9	1589.3	1635.5	-227.2	82.6	0	1.23194272411362	984.38867652	39.9763412793298	456208.297709338	123.03	123.03	0.0	0.0	0	0	0	0	0	101290	1.4456734455218e-05	1.59907309590204	1.59907309590204	-3.10733607510593	-1.51114478302251	192.082526181642	-0.855228010639681	-1.16495087293121	-0.529166588042348	-0.0145352464185676	-0.0070687113541834	0.898508170107075	-0.0028644896855535	-0.0330302182187072	-0.0017723837555941	0.890050236846629	-0.123849832566995	0.0107677113541834	0.8924156701070749	-0.0145352464185676	0.0070687113541834	-0.0051018308187263	-0.026724915870524602	-0.0289334158705246	-0.0056194803728841	-10	18.871075872735553	16.250618803114904	-3.1077697071128583	13.142849096002045	0.055263982738814554	0.19990602831302753	0.5111666643369309	0.008426426629348418	1.6394099478740003e-05	-0.0016303766246748065	0.0068124441041523525	40.248677869783755	997.8465470737054	0.8803797367227083	0.05451864215697633	-0.02636447922883963	0.01057892276630673	0	0.007876556770248877	-0.0037937665555581707	7.005578922766307	0.8803797367227083	0.062395198927225205	-0.0301582457843978
10	13	20	20	6.995	0	420	101290	286.43	-338.5	-159.9	1589.0	1634.6	-226.9	82.8	0	1.23194272411362	984.38867652	39.9763412793298	456208.297709338	123.03	123.03	0.0	0.0	0	0	0	0	0	101290	1.4456734455218e-05	1.59907309590204	1.59907309590204	-3.10641109605041	-1.50868158723743	192.016211480596	-0.862357620455941	-1.16205047417987	-0.530462185343373	-0.0145309196260421	-0.0070571892153326	0.898197968539695	-0.0028883695088598	-0.032947982301379	-0.00177672321251	0.889742871105431	-0.123807760786946	0.0107561892153326	0.892105468539695	-0.0145309196260421	0.0070571892153326	-0.0051217810516043	-0.026643899472513	-0.028852399472513	-0.0056262171240435005	-10	18.870150764598236	16.249814960700164	-3.106844598975542	13.142970361724622	0.05526454990669567	0.1998961398929946	0.5111413793031255	0.008426426629348418	1.9614970569399094e-05	-0.0016303095795577203	0.006815732020360096	40.24880930864418	997.8530643574584	0.8800679707863854	0.05451884559392146	-0.02628438381954342	0.01057892276630673	0	0.007876556770248877	-0.0037937665555581707	7.005578922766307	0.8800679707863854	0.062395402364170335	-0.03007815037510159
11	13	21	6	1.005	0	420	101290	286.43	-859.6	-253.1	402.6	489.5	3.5	143.2	0	1.23194272411362	984.38867652	39.9763412793298	456208.297709338	123.03	123.03	0.0	0.0	0	0	0	0	0	101290	1.4456734455218e-05	1.59907309590204	1.59907309590204	-7.89916147739412	-2.29430780561061	54.5760455087915	-1.0860136797153	8.28071437314289	-0.928936175376409	-0.0369500613383333	-0.0107321282630996	0.255291429973245	-0.0036374802335902	0.234785697068486	-0.0031113668633385	0.254604066572718	-0.041422102014817	0.010434628263099599	0.240898429973245	-0.0369500613383333	0.0107321282630996	-0.0058077652430513	0.252301181535912	0.245200181535912	-0.0063262686496459	-10	17.095740593019112	13.76427126568608	-7.900263813659552	5.864007452026528	0.019225854378975553	0.1693203707922197	0.4329580747141024	0.008426426629348418	-0.0005352927368885599	-0.001418006698481677	0.00647312719397818	40.23511322118078	997.1740699825912	0.23780972028409095	0.018979347655336043	0.24906627002535742	0.00471023771475544	0	0.0015614898500773955	-0.001689164644237825	1.0097102377147553	0.23780972028409095	0.02054083750541344	0.2473771053811196
