run	hr	min	sec	AoA	AoS	dPb	pBar	temp	B1	B2	B3	B4	B5	B6	rpmWT	rho	q	V	Re	rpsM1	rpsM2	iM1	iM2	dPtQ	tM1	tM2	vM1	vM2	pInf	nu	J_M1	J_M2	FX	FY	FZ	MX	MY	MZ	CFX	CFY	CFZ	CMX	CMY	CMZ	CN	CT	CY	CL	CD	CYaw	CMroll	CMpitch	CMpitch25c	CMyaw	delta_e
1	13	14	13	1.507	0	420	101290	286.43	1350.6	-54.1	221.7	251.1	1585.4	29.2	0	1.23194272411362	984.38867652	39.9763412793298	456208.297709338	82.02	82.02	0.0	0.0	0	0	0	0	0	101290	1.4456734455218e-05	2.39860964385305	2.39860964385305	12.435989179542	-0.509402035802516	67.7222546752013	-0.194778750306927	7.32933430513595	-0.18853440075181	0.0581720685546127	-0.0023828398144082	0.316785708379318	-0.0006523894379954	0.207810919002413	-0.0006314746940077	0.318206010191247	0.0498207755005536	0.0023828398144082	0.316785708379318	0.0581720685546127	0.0023828398144082	-0.0013069347637547	0.191414948807595	0.191414948807595	-0.0006656274601444	-10
2	13	14	50	3.993	0	420	101290	286.43	1135.5	-122.4	742.2	807.8	1221.3	71.3	0	1.23194272411362	984.38867652	39.9763412793298	456208.297709338	89.48	89.48	0.0	0.0	0	0	0	0	0	101290	1.4456734455218e-05	2.19863615320549	2.19863615320549	10.4546809731635	-1.05854748961859	125.024966837146	-0.108475449460363	4.26044902777297	-0.461149831009785	0.0489040646069354	-0.004951588188554	0.584831720009302	-0.0003633262735192	0.12079785025006	-0.0015445693054817	0.586817493994769	0.0080608315835323	0.004951588188554	0.584831720009302	0.0489040646069354	0.004951588188554	-0.0016471209129505	0.107014094478198	0.107014094478198	-0.0016555165664355	-10
3	13	15	28	3.507	0	420	101290	286.43	-763.6	-193.7	951.5	1006.9	-172.7	109.5	0	1.23194272411362	984.38867652	39.9763412793298	456208.297709338	123.03	123.03	0.0	0.0	0	0	0	0	0	101290	1.4456734455218e-05	1.59907309590204	1.59907309590204	-7.01426831413918	-1.72549539776966	115.860611394856	-0.922203864035574	4.70285913701404	-0.708664442667523	-0.0328107793710367	-0.0080713833954478	0.54196343624425	-0.0030888177464295	0.133341643117158	-0.0023735915583743	0.538941467660997	-0.065901501530849	0.0080713833954478	0.54196343624425	-0.0328107793710367	0.0080713833954478	-0.0052085228285749	0.142589458675431	0.142589458675431	-0.0026877544742198	-10
4	13	16	3	1.5	0	420	101290	286.43	811.2	-116.2	290.5	336.4	1185.3	66.9	0	1.23194272411362	984.38867652	39.9763412793298	456208.297709338	93.74	93.74	0.0	0.0	0	0	0	0	0	101290	1.4456734455218e-05	2.09871946862415	2.09871946862415	7.47361865580753	-1.03727706828698	67.3388120711723	-0.470345426784413	7.36587019235908	-0.433484466846169	0.0349594914019279	-0.0048520911248284	0.314992071449734	-0.0015753689155521	0.208846832495278	-0.0014519072910156	0.315799264333248	0.0267019804856277	0.0048520911248284	0.314992071449734	0.0349594914019279	0.0048520911248284	-0.0029039302256693	0.198993396073056	0.198993396073056	-0.0015274257900561	-10
5	13	16	54	-0.5	0	420	101290	286.43	1374.6	-11.1	-206.4	-207.0	1807.6	0.5	0	1.23194272411362	984.38867652	39.9763412793298	456208.297709338	82.02	82.02	0.0	0.0	0	0	0	0	0	101290	1.4456734455218e-05	2.39860964385305	2.39860964385305	12.6455546239127	-0.196179023760226	18.8497604501696	-0.321885267501242	10.1084818169733	-0.0082480544932223	0.0591523569113012	-0.0009176704365367	0.0881738912212269	-0.0010781183698594	0.286608961830598	-2.76259275044642e-05	0.0876543386872302	0.0599195571625747	0.0009176704365367	0.0881738912212269	0.0591523569113012	0.0009176704365367	-0.0013369566849916	0.269936694452648	0.269936694452648	-1.59578756224272e-05	-10
6	13	17	26	-4.002	0	420	101290	286.43	1224.6	-38.6	-992.2	-991.1	2114.6	5.8	0	1.23194272411362	984.38867652	39.9763412793298	456208.297709338	89.48	89.48	0.0	0.0	0	0	0	0	0	101290	1.4456734455218e-05	2.19863615320549	2.19863615320549	11.2603549167885	-0.553293844200558	-69.718896620592	-0.628777649625147	15.300404364475	-0.0579951589204804	0.0526727812891854	-0.0025881533805632	-0.326125439256324	-0.0021060197625083	0.433817173527208	-0.0001942482384498	-0.329006321407515	0.0297836279315252	0.0025881533805632	-0.326125439256324	0.0526727812891854	0.0025881533805632	-0.0028421412735992	0.418971193771737	0.418971193771737	4.58213438585573e-06	-10
7	13	18	19	6.994	0	420	101290	286.43	801.4	-188.2	1375.1	1457.3	666.5	109.5	0	1.23194272411362	984.38867652	39.9763412793298	456208.297709338	103.61	103.61	0.0	0.0	0	0	0	0	0	101290	1.4456734455218e-05	1.89879319552965	1.89879319552965	7.38080653695596	-1.62674250273028	189.98489062869	-0.424377293946911	-0.625906319872294	-0.706703711690457	0.0345253423477125	-0.0076094450568678	0.888696019466928	-0.0014214038433853	-0.0177465185959568	-0.0023670243112893	0.886287143160088	-0.0739439933308971	0.0076094450568678	0.888696019466928	0.0345253423477125	0.0076094450568678	-0.0032513908113248	-0.0274775888185595	-0.0274775888185595	-0.0027453179806269	-10
8	13	19	16	6.995	0	420	101290	286.43	-340.3	-159.9	1588.6	1634.3	-229.5	83.0	0	1.23194272411362	984.38867652	39.9763412793298	456208.297709338	123.03	123.03	0.0	0.0	0	0	0	0	0	101290	1.4456734455218e-05	1.59907309590204	1.59907309590204	-3.12296116643997	-1.50622532733433	191.909260353277	-0.858114453927688	-1.17829483656238	-0.531751660831537	-0.0146083362123213	-0.007045699520592	0.897697681170466	-0.0028741575015319	-0.0334085638132568	-0.0017810421651047	0.889236879480682	-0.123823674784689	0.007045699520592	0.897697681170466	-0.0146083362123213	0.007045699520592	-0.0046069345530872	-0.0292911608897516	-0.0292911608897516	-0.0023288305344808	-10
9	13	19	59	6.995	0	420	101290	286.43	-338.6	-159.9	1589.3	1635.5	-227.2	82.6	0	1.23194272411362	984.38867652	39.9763412793298	456208.297709338	123.03	123.03	0.0	0.0	0	0	0	0	0	101290	1.4456734455218e-05	1.59907309590204	1.59907309590204	-3.10733607510593	-1.51114478302251	192.082526181642	-0.855228010639681	-1.16495087293121	-0.529166588042348	-0.0145352464185676	-0.0070687113541834	0.898508170107075	-0.0028644896855535	-0.0330302182187072	-0.0017723837555941	0.890050236846629	-0.123849832566995	0.0070687113541834	0.898508170107075	-0.0145352464185676	0.0070687113541834	-0.0046048308187263	-0.0289334158705246	-0.0289334158705246	-0.0023199803728841	-10
10	13	20	20	6.995	0	420	101290	286.43	-338.5	-159.9	1589.0	1634.6	-226.9	82.8	0	1.23194272411362	984.38867652	39.9763412793298	456208.297709338	123.03	123.03	0.0	0.0	0	0	0	0	0	101290	1.4456734455218e-05	1.59907309590204	1.59907309590204	-3.10641109605041	-1.50868158723743	192.016211480596	-0.862357620455941	-1.16205047417987	-0.530462185343373	-0.0145309196260421	-0.0070571892153326	0.898197968539695	-0.0028883695088598	-0.032947982301379	-0.00177672321251	0.889742871105431	-0.123807760786946	0.0070571892153326	0.898197968539695	-0.0145309196260421	0.0070571892153326	-0.0046247810516043	-0.028852399472513	-0.028852399472513	-0.0023267171240435	-10
11	13	21	6	1.005	0	420	101290	286.43	-859.6	-253.1	402.6	489.5	3.5	143.2	0	1.23194272411362	984.38867652	39.9763412793298	456208.297709338	123.03	123.03	0.0	0.0	0	0	0	0	0	101290	1.4456734455218e-05	1.59907309590204	1.59907309590204	-7.89916147739412	-2.29430780561061	54.5760455087915	-1.0860136797153	8.28071437314289	-0.928936175376409	-0.0369500613383333	-0.0107321282630996	0.255291429973245	-0.0036374802335902	0.234785697068486	-0.0031113668633385	0.254604066572718	-0.041422102014817	0.0107321282630996	0.255291429973245	-0.0369500613383333	0.0107321282630996	-0.0066067652430513	0.245200181535912	0.245200181535912	-0.0032267686496459	-10
12	13	21	56	-4.0	0	420	101290	286.43	1553.3	27.9	-1017.5	-1044.9	2345.1	-36.3	0	1.23194272411362	984.38867652	39.9763412793298	456208.297709338	82.02	82.02	0.0	0.0	0	0	0	0	0	101290	1.4456734455218e-05	2.39860964385305	2.39860964385305	14.2842664758218	-0.0103009477173737	-68.9049199589733	-0.525430560529702	15.1077950500857	0.216043892958744	0.0668177912257127	-4.81849435651093e-05	-0.322317884788568	-0.0017598703531543	0.428356061103448	0.0007236146329494	-0.32619370812014	0.0441712673770216	4.81849435651093e-05	-0.322317884788568	0.0668177912257127	4.81849435651093e-05	-0.0017186545788498	0.4095232683106	0.4095232683106	0.0008417392270771	-10
13	13	22	21	-4.0	0	420	101290	286.43	1552.7	27.8	-1017.6	-1044.3	2344.8	-36.8	0	1.23194272411362	984.38867652	39.9763412793298	456208.297709338	82.02	82.02	0.0	0.0	0	0	0	0	0	101290	1.4456734455218e-05	2.39860964385305	2.39860964385305	14.2787482914974	-0.0180525876722516	-68.8815651061414	-0.52225059421872	15.109719061238	0.21927923463908	0.0667919787075304	-8.44449406072136e-05	-0.322208637339056	-0.0017492194149426	0.428410613196324	0.0007344510447101	-0.326082926201677	0.0441531384536797	8.44449406072136e-05	-0.322208637339056	0.0667919787075303	8.44449406072136e-05	-0.0017174687683364	0.409585095738345	0.409585095738345	0.0008524665239234	-10
14	13	22	43	-4.0	0	420	101290	286.43	1554.1	27.8	-1017.4	-1043.9	2345.3	-36.2	0	1.23194272411362	984.38867652	39.9763412793298	456208.297709338	82.02	82.02	0.0	0.0	0	0	0	0	0	101290	1.4456734455218e-05	2.39860964385305	2.39860964385305	14.2916190357212	-0.0106601165285141	-68.832431673963	-0.511263047794272	15.1026674483661	0.215392160349323	0.0668521844382143	-4.98650345013984e-05	-0.321978804927356	-0.0017124178684418	0.428210676600401	0.0007214317281402	-0.325857853389653	0.0442292298248219	4.98650345013984e-05	-0.321978804927356	0.0668521844382143	4.98650345013984e-05	-0.0016719423428483	0.40936818997852	0.40936818997852	0.0008363031588501	-10
15	13	23	19	-0.005	0	420	101290	286.43	-59.4	-214.2	56.2	143.3	706.1	112.9	0	1.23194272411362	984.38867652	39.9763412793298	456208.297709338	109.36	109.36	0.0	0.0	0	0	0	0	0	101290	1.4456734455218e-05	1.79895723288979	1.79895723288979	-0.535019061410733	-2.04742521105903	29.4227048976871	-0.833774592130011	9.70851901724772	-0.735415092011472	-0.0025026690735313	-0.0095772807469228	0.137631159183223	-0.0027926338818657	0.27526869087045	-0.0024631898388028	0.13763137705824	-0.0024906584796116	0.0095772807469228	0.137631159183223	-0.0025026690735313	0.0095772807469228	-0.0054922338216704	0.275974075577521	0.275974075577521	-0.0024627105416069	-10
16	13	23	49	4.0	0	420	101290	286.43	90.2	-167.2	912.2	971.7	433.5	99.7	0	1.23194272411362	984.38867652	39.9763412793298	456208.297709338	109.36	109.36	0.0	0.0	0	0	0	0	0	101290	1.4456734455218e-05	1.79895723288979	1.79895723288979	0.837852511667998	-1.42704542023573	126.138709868059	-0.568803715845785	4.17291187669396	-0.644233910599604	0.0039192389960892	-0.0066753181285379	0.590041497455321	-0.0019051438410279	0.118315881894511	-0.0021577887639766	0.588877578315029	-0.0372495222983114	0.0066753181285379	0.590041497455321	0.0039192389960892	0.0066753181285379	-0.003626858362378	0.117211232749949	0.117211232749949	-0.0024055293491265	-10
17	13	24	39	-1.493	0	420	101290	286.43	-830.7	-325.9	-200.1	-70.1	317.2	176.2	0	1.23194272411362	984.38867652	39.9763412793298	456208.297709338	123.03	123.03	0.0	0.0	0	0	0	0	0	101290	1.4456734455218e-05	1.59907309590204	1.59907309590204	-7.64115773196341	-3.05296997145313	-8.92776505065068	-1.15513639960121	12.1213458169333	-1.15833408000709	-0.0357431921983028	-0.014280937037699	-0.041761580286696	-0.0038689989814414	0.343680327420437	-0.0038797092510144	-0.0408161205537778	-0.03681914827242	0.014280937037699	-0.041761580286696	-0.0357431921983028	0.014280937037699	-0.0079925286585223	0.353754652238384	0.353754652238384	-0.0036701482793612	-10
18	13	25	25	2.493	0	420	101290	286.43	854.1	-151.7	475.0	554.6	1133.6	77.1	0	1.23194272411362	984.38867652	39.9763412793298	456208.297709338	93.74	93.74	0.0	0.0	0	0	0	0	0	101290	1.4456734455218e-05	2.09871946862415	2.09871946862415	7.86906288710019	-1.48059719848632	90.7346992798111	-0.39262064163106	6.14189974498767	-0.498659966441386	0.0368092685768813	-0.0069258183236281	0.424431468263928	-0.001315038521068	0.174143213733911	-0.0016702052700559	0.425630867143779	0.0183127944419694	0.0069258183236281	0.424431468263928	0.0368092685768813	0.0069258183236281	-0.0031913593334931	0.163768412124217	0.163768412124217	-0.0018074401039387	-10
19	13	26	3	-3.995	0	420	101290	286.43	-616.5	-352.1	-831.8	-689.5	801.3	191.4	0	1.23194272411362	984.38867652	39.9763412793298	456208.297709338	123.03	123.03	0.0	0.0	0	0	0	0	0	101290	1.4456734455218e-05	1.59907309590204	1.59907309590204	-5.67705018954967	-3.27267049998941	-73.6629123513196	-1.16642236947815	16.0918988236316	-1.26561031322107	-0.0265556481311302	-0.0153086344747892	-0.344574438379433	-0.003906800063611	0.456258664677011	-0.004239018885081	-0.341887052027417	-0.0504974225893554	0.0153086344747892	-0.344574438379433	-0.0265556481311302	0.0153086344747892	-0.0084969367675808	0.463743452928151	0.463743452928151	-0.0036367419837206	-10
20	13	26	24	-3.995	0	420	101290	286.43	-618.2	-352.3	-829.6	-687.9	798.1	191.4	0	1.23194272411362	984.38867652	39.9763412793298	456208.297709338	123.03	123.03	0.0	0.0	0	0	0	0	0	101290	1.4456734455218e-05	1.59907309590204	1.59907309590204	-5.69270077578031	-3.27588036654865	-73.5084087360813	-1.17933131581439	16.0669186178751	-1.26560991184454	-0.0266288571828578	-0.0153236493300484	-0.343851713812226	-0.0039500371222334	0.455550393052467	-0.0042390175407157	-0.34116098315202	-0.0505201019517644	0.0153236493300484	-0.343851713812226	-0.0266288571828578	0.0153236493300484	-0.0085442903706523	0.463055815492144	0.463055815492144	-0.0036334415445803	-10
21	13	26	41	-3.995	0	420	101290	286.43	-617.9	-351.9	-829.6	-687.9	798.8	191.5	0	1.23194272411362	984.38867652	39.9763412793298	456208.297709338	123.03	123.03	0.0	0.0	0	0	0	0	0	101290	1.4456734455218e-05	1.59907309590204	1.59907309590204	-5.68994665927318	-3.26826723142076	-73.4911881513493	-1.17135373111152	16.073083958021	-1.26624635154321	-0.026615974198485	-0.0152880372197304	-0.34377116074796	-0.0039233171027617	0.455725200879253	-0.0042411492236466	-0.341081523370962	-0.0505016381860853	0.0152880372197304	-0.34377116074796	-0.026615974198485	0.0152880372197304	-0.0085077708008501	0.463226992211544	0.463226992211544	-0.0036381123450389	-10
22	13	27	28	6.995	0	420	101290	286.43	1317.2	-196.5	1272.7	1377.5	1071.5	110.9	0	1.23194272411362	984.38867652	39.9763412793298	456208.297709338	93.74	93.74	0.0	0.0	0	0	0	0	0	101290	1.4456734455218e-05	2.09871946862415	2.09871946862415	12.1263096376904	-1.73982246404149	188.766107828887	-0.191428191489718	-0.373749519240837	-0.717148139591943	0.056723474536198	-0.0081384013921121	0.882994895450195	-0.0006411671194402	-0.0105970375803056	-0.0024020067436033	0.883330512216701	-0.0512322568460525	0.0081384013921121	0.882994895450195	0.056723474536198	0.0081384013921121	-0.0026206309378911	-0.0265847172511583	-0.0265847172511583	-0.0027032756680444	-10
23	13	28	29	6.995	0	420	101290	286.43	1869.2	-195.4	1169.0	1292.3	1503.1	110.7	0	1.23194272411362	984.38867652	39.9763412793298	456208.297709338	82.02	82.02	0.0	0.0	0	0	0	0	0	101290	1.4456734455218e-05	2.39860964385305	2.39860964385305	17.2047829791758	-1.72259556205602	187.79023157293	0.111365883130912	-0.127527781030224	-0.717003020927984	0.0804791480985117	-0.0080578187775075	0.878430020099887	0.0003730074548335	-0.0036158352547322	-0.0024015206850191	0.881692644931291	-0.0270974789494478	0.0080578187775075	0.878430020099888	0.0804791480985117	0.0080578187775075	-0.001591520883189	-0.0262991220333134	-0.0262991220333134	-0.0025774653985067	-10
24	13	29	11	6.995	0	420	101290	286.43	1869.6	-191.3	1171.8	1291.0	1503.0	111.0	0	1.23194272411362	984.38867652	39.9763412793298	456208.297709338	82.02	82.02	0.0	0.0	0	0	0	0	0	101290	1.4456734455218e-05	2.39860964385305	2.39860964385305	17.2084274062843	-1.65353630846273	187.879608511584	0.117715285040324	-0.132700134919681	-0.718812094560206	0.0804961957061075	-0.0077347789632748	0.878848100344853	0.0003942740598238	-0.0037624886301173	-0.0024075799729463	0.882109689418397	-0.0271314731832108	0.0077347789632748	0.878848100344853	0.0804961957061075	0.0077347789632748	-0.0014793026259293	-0.0264505803275019	-0.0264505803275019	-0.0025698133404563	-10
25	13	29	30	6.995	0	420	101290	286.43	1869.8	-195.4	1169.3	1292.4	1504.4	110.7	0	1.23194272411362	984.38867652	39.9763412793298	456208.297709338	82.02	82.02	0.0	0.0	0	0	0	0	0	101290	1.4456734455218e-05	2.39860964385305	2.39860964385305	17.2102967285894	-1.72259323792146	187.846769567648	0.10811495687127	-0.116511824421558	-0.717005435297523	0.0805049398714256	-0.0080578079058581	0.87869448897785	0.0003621188442836	-0.0033034963749334	-0.0024015287716773	0.881958286302435	-0.0271040868914489	0.0080578079058581	0.87869448897785	0.0805049398714256	0.0080578079058581	-0.0016023244212331	-0.0259940526412683	-0.0259940526412683	-0.0025787891092979	-10
26	13	30	1	4.005	0	420	101290	286.43	1526.3	-108.9	696.9	760.1	1520.4	67.6	0	1.23194272411362	984.38867652	39.9763412793298	456208.297709338	82.02	82.02	0.0	0.0	0	0	0	0	0	101290	1.4456734455218e-05	2.39860964385305	2.39860964385305	14.0498312790794	-0.88746579063621	126.674974991371	0.0234458921689253	4.35221625357903	-0.437583982802229	0.0657211691444596	-0.0041513159964541	0.59254999525685	7.85293693038108e-05	0.123399755243764	-0.0014656381569669	0.595693162185394	0.0241748935504005	0.0041513159964541	0.59254999525685	0.0657211691444596	0.0041513159964541	-0.000986500463681	0.10487604863963	0.10487604863963	-0.0015309596807153	-10
27	13	30	42	-0.498	0	420	101290	286.43	308.6	-196.0	-102.6	-18.5	1031.7	98.7	0	1.23194272411362	984.38867652	39.9763412793298	456208.297709338	103.61	103.61	0.0	0.0	0	0	0	0	0	101290	1.4456734455218e-05	1.89879319552965	1.89879319552965	2.83877725772543	-1.93880805887817	17.7075887861197	-0.760831380824536	10.3702106578723	-0.647693243596585	0.0132790036131055	-0.0090692001807813	0.0828311326048439	-0.0025483188292525	0.294029841912237	-0.0021693754093688	0.082712587640824	0.0139984396029383	0.0090692001807813	0.0828311326048439	0.0132790036131055	0.0090692001807813	-0.0051231624173802	0.290287115327692	0.290287115327692	-0.0021247648323233	-10
28	13	31	18	4.493	0	420	101290	286.43	155.4	-165.7	1008.2	1064.4	438.5	102.4	0	1.23194272411362	984.38867652	39.9763412793298	456208.297709338	109.36	109.36	0.0	0.0	0	0	0	0	0	101290	1.4456734455218e-05	1.79895723288979	1.79895723288979	1.43939300143704	-1.38012693211077	137.657337871014	-0.633043266396443	3.47237099252093	-0.66240326716154	0.0067330766493726	-0.0064558466037336	0.643922407784935	-0.0021203069643911	0.0984532260409304	-0.0022186449728674	0.64247102852	-0.0437307566955783	0.0064558466037336	0.643922407784935	0.0067330766493726	0.0064558466037336	-0.0037539961587878	0.0965554884014497	0.0965554884014497	-0.0025059047998194	-10
29	13	31	56	-1.493	0	420	101290	286.43	842.0	-122.0	-386.9	-332.7	1528.3	52.0	0	1.23194272411362	984.38867652	39.9763412793298	456208.297709338	93.74	93.74	0.0	0.0	0	0	0	0	0	101290	1.4456734455218e-05	2.09871946862415	2.09871946862415	7.74728671162956	-1.32544003736804	-6.72125985711774	-0.60119204898086	11.6297029576523	-0.351413197167342	0.0362396337914594	-0.006200036652142	-0.0314401680105047	-0.0020136249069466	0.329740622918684	-0.0011770188372342	-0.0323737115890313	0.0354081631805163	0.006200036652142	-0.0314401680105047	0.0362396337914594	0.006200036652142	-0.0037905138086282	0.319526374564113	0.319526374564113	-0.0010778581143811	-10
30	13	32	26	-4.002	0	420	101290	286.43	789.9	-114.4	-952.0	-918.8	1799.3	51.9	0	1.23194272411362	984.38867652	39.9763412793298	456208.297709338	98.43	98.43	0.0	0.0	0	0	0	0	0	101290	1.4456734455218e-05	1.9987195264536	1.9987195264536	7.26127669589634	-1.19571641649874	-70.5688017436819	-0.775829691011187	15.4197234175275	-0.357972241253726	0.0339662152844724	-0.0055932259467438	-0.330101056987372	-0.0025985539762495	0.437200264137763	-0.0011989876150324	-0.331666689579436	0.0108452122316328	0.0055932259467438	-0.330101056987372	0.0339662152844724	0.0055932259467438	-0.0042485198997856	0.427626785537597	0.427626785537597	-0.0008995543145203	-10
31	13	32	58	-4.002	0	420	101290	286.43	195.3	-210.1	-900.5	-826.0	1380.5	109.5	0	1.23194272411362	984.38867652	39.9763412793298	456208.297709338	109.36	109.36	0.0	0.0	0	0	0	0	0	101290	1.4456734455218e-05	1.79895723288979	1.79895723288979	1.79118225108098	-2.01432178260273	-72.0125535395135	-0.956457748628516	15.7444551964124	-0.732673894388161	0.0083786480672641	-0.0094224321955329	-0.336854522854094	-0.0032035472663774	0.446407486320557	-0.0024540085067834	-0.336617898435671	-0.0151512957679057	0.0094224321955329	-0.336854522854094	0.0083786480672641	0.0094224321955329	-0.0060162689804757	0.444045939492379	0.444045939492379	-0.0020281414837385	-10
32	13	33	51	7.995	0	420	101290	286.43	-143.4	-135.5	1726.8	1749.9	-211.7	77.5	0	1.23194272411362	984.38867652	39.9763412793298	456208.297709338	123.03	123.03	0.0	0.0	0	0	0	0	0	101290	1.4456734455218e-05	1.59907309590204	1.59907309590204																							-10
33	13	35	16	2.005	0	420	101290	286.43	328.9	-167.1	457.9	522.4	787.9	97.5	0	1.23194272411362	984.38867652	39.9763412793298	456208.297709338	103.61	103.61	0.0	0.0	0	0	0	0	0	101290	1.4456734455218e-05	1.89879319552965	1.89879319552965	3.03634950207104	-1.47992754396494	79.225455576652	-0.626892829308194	6.82706861660584	-0.630845442714066	0.0142031911446827	-0.0069226858676439	0.370594455056059	-0.0020997067696106	0.193570022084438	-0.0021129456020521	0.370864491778713	0.0012286149546185	0.0069226858676439	0.370594455056059	0.0142031911446827	0.0069226858676439	-0.0039744812722103	0.189566810500842	0.189566810500842	-0.0022507060327087	-10
34	13	35	52	4.495	0	420	101290	286.43	758.9	-143.8	903.3	964.7	897.7	89.8	0	1.23194272411362	984.38867652	39.9763412793298	456208.297709338	98.43	98.43	0.0	0.0	0	0	0	0	0	101290	1.4456734455218e-05	1.9987195264536	1.9987195264536	6.99168076249954	-1.18381108176429	136.395994820636	-0.357767306346295	3.57909852162668	-0.581418481366213	0.0327051211412415	-0.0055375361308121	0.638022198855987	-0.0011983012086925	0.101479305215785	-0.0019473955742141	0.638622924323514	-0.0173986123117655	0.0055375361308121	0.638022198855987	0.0327051211412415	0.0055375361308121	-0.0025979643091965	0.0922612697432065	0.0922612697432065	-0.0021450136430868	-10
35	13	36	27	0.005	0	420	101290	286.43	1003.2	-98.6	-64.9	-17.4	1479.5	44.5	0	1.23194272411362	984.38867652	39.9763412793298	456208.297709338	89.48	89.48	0.0	0.0	0	0	0	0	0	101290	1.4456734455218e-05	2.19863615320549	2.19863615320549	9.24061443621795	-1.04278663673664	31.1504400612697	-0.441543192555574	9.44677670185294	-0.291154487413537	0.0432250019447356	-0.0048778633403661	0.145713019574794	-0.0014788990831296	0.267847428742197	-0.0009751890907722	0.145716791112971	0.0432122859203901	0.0048778633403661	0.145713019574794	0.0432250019447356	0.0048778633403661	-0.0028536542324512	0.255664333638892	0.255664333638892	-0.000975438115369	-10
36	13	37	36	-4.0	0	105	101290	286.43	171.8	-47.0	-247.1	-223.9	449.9	19.4	0	1.23194272411362	244.9532641575	19.9416621822985	227573.39632742	54.68	54.68	0.0	0.0	0	0	0	0	0	101290	1.4456734455218e-05	1.79477142082735	1.79477142082735	1.57055614645091	-0.527870073034165	-17.8450181289144	-0.177149712831843	3.93326833135296	-0.142841994970092	0.0295237158489322	-0.0099230365476799	-0.335455211676244	-0.0023844552548184	0.448167939689919	-0.0019226694758376	-0.336697529949965	0.0060516248953571	0.0099230365476799	-0.335455211676244	0.0295237158489322	0.0099230365476799	-0.0053027898349687	0.439846592742373	0.439846592742373	-0.0015480820297339	-10
37	13	38	16	3.994	0	105	101290	286.43	153.9	-44.1	195.1	222.1	244.7	22.4	0	1.23194272411362	244.9532641575	19.9416621822985	227573.39632742	54.68	54.68	0.0	0.0	0	0	0	0	0	101290	1.4456734455218e-05	1.79477142082735	1.79477142082735	1.43309811793192	-0.413827721984109	31.4508921277925	-0.0513937888218855	1.10726685009167	-0.139678985510486	0.0269397446968536	-0.0077792392853187	0.59122190854155	-0.0006917662346859	0.126165178952292	-0.0018800950092667	0.591662444590768	-0.0143054760396121	0.0077792392853187	0.59122190854155	0.0269397446968536	0.0077792392853187	-0.0027464104034081	0.118572131943985	0.118572131943985	-0.0020668219172123	-10
38	13	38	59	7.0	0	105	101290	286.43	243.6	-48.6	315.5	346.5	294.7	26.2	0	1.23194272411362	244.9532641575	19.9416621822985	227573.39632742	54.68	54.68	0.0	0.0	0	0	0	0	0	101290	1.4456734455218e-05	1.79477142082735	1.79477142082735	2.26241296953721	-0.424227730542427	47.5958272194281	-0.0180533111283391	-0.0516661888512675	-0.161859146028511	0.0425294172363698	-0.0079747413042667	0.894718524770166	-0.0002429996182251	-0.0058869945954432	-0.0021786424889915	0.893232460716829	-0.0668263497366553	0.0079747413042667	0.894718524770165	0.0425294172363698	0.0079747413042667	-0.0022066290658207	-0.017874037083985	-0.017874037083985	-0.0024313236536411	-10
39	13	39	46	-1.995	0	105	101290	286.43	130.7	-45.1	-123.5	-99.6	344.7	20.9	0	1.23194272411362	244.9532641575	19.9416621822985	227573.39632742	54.68	54.68	0.0	0.0	0	0	0	0	0	101290	1.4456734455218e-05	1.79477142082735	1.79477142082735	1.20333170134299	-0.484848084837717	-5.37419113576419	-0.179970400168182	3.16173703402776	-0.147657326715486	0.0226205368733522	-0.0091142982178607	-0.101025418523687	-0.0024224220267303	0.360257438091981	-0.0019874843880407	-0.101751656399725	0.0190899003726346	0.0091142982178607	-0.101025418523687	0.0226205368733522	0.0091142982178607	-0.0050574775116802	0.353881772629473	0.353881772629473	-0.001810217371927	-10
40	13	40	23	2.495	0	105	101290	286.43	131.7	-41.6	124.6	149.6	242.2	20.9	0	1.23194272411362	244.9532641575	19.9416621822985	227573.39632742	54.68	54.68	0.0	0.0	0	0	0	0	0	101290	1.4456734455218e-05	1.79477142082735	1.79477142082735	1.22969155937154	-0.418898850564209	22.4234238073338	-0.151281107939281	1.58572875628169	-0.129295931694012	0.0231160562217128	-0.0078745676564633	0.421521251783277	-0.0020362608948905	0.180682508728146	-0.0017403379256227	0.422127952744622	0.0047443937252513	0.0078745676564633	0.421521251783277	0.0231160562217128	0.0078745676564633	-0.0041759360879859	0.174167179666448	0.174167179666448	-0.001920475828355	-10
41	13	40	55	0.507	0	105	101290	286.43	117.2	-40.9	21.9	42.9	265.8	20.0	0	1.23194272411362	244.9532641575	19.9416621822985	227573.39632742	54.68	54.68	0.0	0.0	0	0	0	0	0	101290	1.4456734455218e-05	1.79477142082735	1.79477142082735	1.09187755231368	-0.426921886126895	10.2942715932892	-0.200604333645212	2.27771673593828	-0.126853848116822	0.0205253932940781	-0.0080253867295247	0.193514348454721	-0.0027001571148677	0.259529615258051	-0.0017074672033096	0.193688395388525	0.0188122385576599	0.0080253867295247	0.193514348454721	0.0205253932940781	0.0080253867295247	-0.0049468330444948	0.253744472232396	0.253744472232396	-0.0017511734155365	-10
42	13	41	30	4.993	0	105	101290	286.43	179.4	-44.9	239.4	267.8	257.6	22.0	0	1.23194272411362	244.9532641575	19.9416621822985	227573.39632742	54.68	54.68	0.0	0.0	0	0	0	0	0	101290	1.4456734455218e-05	1.79477142082735	1.79477142082735	1.67131401324926	-0.421600631287403	37.284215051464	-0.0357791156566475	0.762420287969695	-0.139060855068103	0.0314177879810375	-0.007925356421028	0.700878203760744	-0.0004815909604168	0.0868723669101004	-0.001871774903307	0.700953025218685	-0.0297016892664693	0.007925356421028	0.700878203760744	0.0314177879810375	0.007925356421028	-0.0025421641392578	0.0780171701099281	0.0780171701099281	-0.0020859269516092	-10
43	13	41	53	4.993	0	105	101290	286.43	179.8	-44.8	238.7	267.8	258.3	22.0	0	1.23194272411362	244.9532641575	19.9416621822985	227573.39632742	54.68	54.68	0.0	0.0	0	0	0	0	0	101290	1.4456734455218e-05	1.79477142082735	1.79477142082735	1.67499464067924	-0.419998635957818	37.2585006498065	-0.0228259612591344	0.767622198966329	-0.139059159480187	0.0314869773561731	-0.0078952417033792	0.700394817866214	-0.0003072400310481	0.0874650876546345	-0.001871752080501	0.700477495440308	-0.0295906914172172	0.0078952417033792	0.700394817866214	0.0314869773561731	0.0078952417033792	-0.0023600210851991	0.0785903896237048	0.0785903896237048	-0.0020700515706565	-10
44	13	42	22	3.507	0	105	101290	286.43	148.7	-45.8	173.8	199.3	245.2	22.8	0	1.23194272411362	244.9532641575	19.9416621822985	227573.39632742	54.68	54.68	0.0	0.0	0	0	0	0	0	101290	1.4456734455218e-05	1.79477142082735	1.79477142082735	1.38733970444689	-0.42982510745722	28.8196979608399	-0.083024226221003	1.28413816437485	-0.144268326420366	0.026079566345075	-0.0080799622261071	0.541760048101843	-0.0011175155145626	0.146318406709645	-0.0019418680591565	0.542340811362016	-0.0071089965008541	0.0080799622261071	0.541760048101843	0.026079566345075	0.0080799622261071	-0.0032697343666999	0.138967803523062	0.138967803523062	-0.0021382428205041	-10
1	14	36	33	3.495	0	420	101290	286.43	-754.5	-195.8	910.7	966.6	-107.2	109.4	0	1.23194272411362	984.38867652	39.9763412793298	456208.297709338	123.03	123.03	0.0	0.0	0	0	0	0	0	101290	1.4456734455218e-05	1.59907309590204	1.59907309590204	-6.93028100551407	-1.75988630411129	112.494020683682	-0.953292835791408	5.46211117385922	-0.708182254201043	-0.0324179103033235	-0.0082322544071927	0.526215469370177	-0.0031929467480772	0.154868954734079	-0.0023719765225341	0.523260530502474	-0.0644364674014633	0.0082322544071927	0.526215469370177	-0.0324179103033235	0.0082322544071927	-0.0053583790561207	0.16400603897946	0.16400603897946	-0.0026942194156482	-10
2	14	37	0	5.0	0	420	101290	286.43	-626.7	-162.3	1211.6	1244.8	-152.7	97.3	0	1.23194272411362	984.38867652	39.9763412793298	456208.297709338	123.03	123.03	0.0	0.0	0	0	0	0	0	101290	1.4456734455218e-05	1.59907309590204	1.59907309590204	-5.75541913676772	-1.37190714473471	146.849710439478	-0.911094432552313	3.25507027316177	-0.628843387272041	-0.026922236080372	-0.0064173967443906	0.68692174780623	-0.0030516079596823	0.0922920304520937	-0.0021062399433362	0.681961375686469	-0.0866889639836124	0.0064173967443906	0.68692174780623	-0.026922236080372	0.0064173967443906	-0.0046583041979372	0.0998801426048743	0.0998801426048743	-0.0025042230267764	-10
3	14	37	40	-0.995	0	420	101290	286.43	-823.7	-287.6	-96.9	1.5	314.4	161.6	0	1.23194272411362	984.38867652	39.9763412793298	456208.297709338	123.03	123.03	0.0	0.0	0	0	0	0	0	101290	1.4456734455218e-05	1.59907309590204	1.59907309590204	-7.57928398534637	-2.61738216167599	1.86332165938917	-1.15352709080759	12.0355402349649	-1.05643873683355	-0.0354537641698627	-0.0122433794645874	0.0087160959811379	-0.0038636087832921	0.341247454788076	-0.0035384223007563	0.0093304417653253	-0.0352970619092939	0.0122433794645874	0.0087160959811379	-0.0354537641698627	0.0122433794645874	-0.0073747839600928	0.351240203457095	0.351240203457095	-0.0034098245042018	-10
4	14	38	14	3.995	0	420	101290	286.43	-724.5	-189.8	1009.9	1060.7	-130.2	107.2	0	1.23194272411362	984.38867652	39.9763412793298	456208.297709338	123.03	123.03	0.0	0.0	0	0	0	0	0	101290	1.4456734455218e-05	1.59907309590204	1.59907309590204	-6.65714658976502	-1.69781722272202	123.730227154944	-0.976579162200753	4.75524453686155	-0.691806100566577	-0.0311402641323445	-0.0079419126574879	0.578775291005863	-0.0032709416698807	0.134826942822616	-0.0023171264444364	0.575199420396719	-0.0713875360580012	0.0079419126574879	0.578775291005863	-0.0311402641323445	0.0079419126574879	-0.0053345733836568	0.143603918702257	0.143603918702257	-0.002683152768766	-10
5	14	38	47	7.0	0	420	101290	286.43	-341.5	-139.5	1569.7	1586.0	-173.4	88.4	0	1.23194272411362	984.38867652	39.9763412793298	456208.297709338	123.03	123.03	0.0	0.0	0	0	0	0	0	101290	1.4456734455218e-05	1.59907309590204	1.59907309590204	-3.13396830108963	-1.11425471905468	189.162940841627	-0.923758962495056	-0.441214991233014	-0.566167905630453	-0.01465982450024	-0.0052121709795936	0.884851168955143	-0.0030940263731838	-0.0125099073106167	-0.0018963154922356	0.876469039335473	-0.122386783363291	0.0052121709795936	0.884851168955143	-0.01465982450024	0.0052121709795936	-0.0042979769136236	-0.0083779922603285	-0.0083779922603285	-0.00240597226855	-10
6	14	39	4	7.0	0	420	101290	286.43	-342.3	-138.4	1569.9	1586.5	-171.9	87.4	0	1.23194272411362	984.38867652	39.9763412793298	456208.297709338	123.03	123.03	0.0	0.0	0	0	0	0	0	101290	1.4456734455218e-05	1.59907309590204	1.59907309590204	-3.14133814135511	-1.10902431152749	189.242849307001	-0.913442720594883	-0.414047357684808	-0.559659949039955	-0.0146942985454462	-0.0051877046005346	0.885224958338419	-0.0030594732854118	-0.0117396148584335	-0.0018745178262382	0.876835841220114	-0.122466553910903	0.0051877046005346	0.885224958338419	-0.0146942985454462	0.0051877046005346	-0.0042594933261631	-0.0075979831961743	-0.0075979831961743	-0.0023796471095139	-10
7	14	39	44	3.005	0	420	101290	286.43	-777.2	-218.4	809.9	874.6	-78.0	121.8	0	1.23194272411362	984.38867652	39.9763412793298	456208.297709338	123.03	123.03	0.0	0.0	0	0	0	0	0	101290	1.4456734455218e-05	1.59907309590204	1.59907309590204	-7.14679715454388	-1.99423947861296	101.33795285718	-1.0399739803823	6.12884463270824	-0.78923919083797	-0.0334307121064372	-0.0093284928114146	0.474030513832359	-0.003483275457525	0.173773058032517	-0.0026434675822872	0.471626163044528	-0.0582348940757242	0.0093284928114146	0.47403051383236	-0.0334307121064372	0.0093284928114146	-0.0059655551108486	0.183195603472415	0.183195603472415	-0.0029525656281049	-10
8	14	40	33	-4.0	0	420	101290	286.43	-591.9	-347.5	-856.9	-721.4	872.1	186.1	0	1.23194272411362	984.38867652	39.9763412793298	456208.297709338	123.03	123.03	0.0	0.0	0	0	0	0	0	101290	1.4456734455218e-05	1.59907309590204	1.59907309590204	-5.45060524355448	-3.26430332327261	-75.4200122277612	-1.27012646037813	16.7701746819812	-1.23127907482688	-0.025496402201265	-0.0152694951694592	-0.352793658659699	-0.0042541452102118	0.475490033256011	-0.0041240302773075	-0.350155731927829	-0.0500439358343366	0.0152694951694592	-0.352793658659699	-0.025496402201265	0.0152694951694592	-0.0088247289492732	0.48267626989765	0.48267626989765	-0.003498402373576	-10
9	14	40	52	-4.0	0	420	101290	286.43	-590.8	-347.8	-857.0	-720.8	873.3	186.6	0	1.23194272411362	984.38867652	39.9763412793298	456208.297709338	123.03	123.03	0.0	0.0	0	0	0	0	0	101290	1.4456734455218e-05	1.59907309590204	1.59907309590204	-5.44049422841955	-3.26292264261098	-75.3597600514509	-1.2573980643155	16.7750905375768	-1.23452912374477	-0.0254491057090364	-0.0152630367326642	-0.352511815882234	-0.0042115128843508	0.475629414054658	-0.0041349159493002	-0.349877874941723	-0.0499770941956797	0.0152630367326642	-0.352511815882234	-0.0254491057090364	0.0152630367326642	-0.0087811439243578	0.482802320039571	0.482802320039571	-0.003512301866265	-10
1	14	0	8	7.0	0	420	101290	286.43	1442.5	-155.8	1849.1	1925.0	-306.4	77.8	0	1.23194272411362	984.38867652	39.9763412793298	456208.297709338	98.43	98.43	0.64	0.64	0	0	0	0	0	101290	1.4456734455218e-05	1.9987195264536	1.9987195264536	13.2747399213173	-1.46092587405618	223.861184144109	-0.335150955395857	-19.4133622311448	-0.509370623752683	0.0620955092191517	-0.0068338013865925	1.04715981678166	-0.0011225502940634	-0.550433160533274	-0.0017060794077268	1.04692198523701	-0.0659840206017581	0.0068338013865925	1.04715981678166	0.0620955092191517	0.0068338013865925	-0.0028180343427176	-0.567934964125379	-0.567934964125379	-0.0020367945455739	10
2	14	0	53	1.507	0	420	101290	286.43	400.3	-95.8	1000.4	1016.6	-686.8	45.0	0	1.23194272411362	984.38867652	39.9763412793298	456208.297709338	103.61	103.61	0.43	0.43	0	0	0	0	0	101290	1.4456734455218e-05	1.89879319552965	1.89879319552965	3.6877839747272	-0.925059835613591	106.837201882518	-0.712960279523638	-12.8550205999754	-0.303445197757347	0.0172504188525141	-0.0043271703921194	0.499754457998148	-0.0023879799790201	-0.364482439121909	-0.001016355437723	0.500035272758345	0.0041013701487263	0.0043271703921194	0.499754457998148	0.0172504188525141	0.0043271703921194	-0.0035796287853047	-0.369344520880071	-0.369344520880071	-0.0011101448413603	10
3	14	1	39	-0.002	0	420	101290	286.43	-870.8	-167.6	901.8	921.1	-1620.5	89.9	0	1.23194272411362	984.38867652	39.9763412793298	456208.297709338	123.03	123.03	0.28	0.27	0	0	0	0	0	101290	1.4456734455218e-05	1.59907309590204	1.59907309590204	-8.00479211014517	-1.52996076947796	71.9465001350256	-1.2669138813634	-12.5357634694238	-0.596328699718011	-0.0374441718044287	-0.0071567272601324	0.336545543558707	-0.0042433850394301	-0.355430441363871	-0.0019973356675538	0.336546850401838	-0.0374324241259828	0.0071567272601324	0.336545543558707	-0.0374441718044287	0.0071567272601324	-0.0062605995774328	-0.344876690394903	-0.344876690394903	-0.0019971171301855	10
4	14	2	25	1.495	0	420	101290	286.43	1447.9	-70.1	778.5	812.0	225.7	35.0	0	1.23194272411362	984.38867652	39.9763412793298	456208.297709338	82.02	82.02	0.26	0.26	0	0	0	0	0	101290	1.4456734455218e-05	2.39860964385305	2.39860964385305	13.3258416127889	-0.633996483855698	103.10835762711	-0.157867890599475	-11.174994012601	-0.240248823943497	0.062334548595644	-0.0029656576883251	0.482311970671776	-0.0005287606798145	-0.316848117294602	-0.0008046863170884	0.483774084747077	0.0497299500205141	0.0029656576883251	0.482311970671776	0.062334548595644	0.0029656576883251	-0.001343181552345	-0.334417294844514	-0.334417294844514	-0.000839455625717	10
5	14	3	3	3.0	0	420	101290	286.43	-603.0	-48.0	1536.7	1507.6	-1703.5	16.0	0	1.23194272411362	984.38867652	39.9763412793298	456208.297709338	123.03	123.03	0.7	0.69	0	0	0	0	0	101290	1.4456734455218e-05	1.59907309590204	1.59907309590204	-5.55147734473966	-0.547438631514398	144.827045968018	-0.981068416306108	-16.5768765687815	-0.101978441022269	-0.0259682535916671	-0.0025607643382552	0.677460290852704	-0.0032859779197704	-0.470009391103106	-0.0003415652771225	0.675172781685255	-0.0613881971410344	0.0025607643382552	0.677460290852704	-0.0259682535916671	0.0025607643382552	-0.0039843683400487	-0.462690161746482	-0.462690161746482	-0.0005496229008817	10
6	14	3	40	4.5	0	420	101290	286.43	13.1	0.3	1727.5	1685.3	-1305.1	-5.6	0	1.23194272411362	984.38867652	39.9763412793298	456208.297709338	115.79	115.79	0.47	0.46	0	0	0	0	0	101290	1.4456734455218e-05	1.69905832100205	1.69905832100205	0.126388017799647	-0.0030927472164859	177.173780385919	-0.676538655916921	-17.6976608792662	0.028539013597641	0.0005912076900177	-1.44670038307425e-05	0.828769239816045	-0.0022659898619349	-0.501787340896186	9.5588204629978e-05	0.826260806458189	-0.0644350999290054	1.44670038307425e-05	0.828769239816045	0.0005912076900177	1.44670038307425e-05	-0.0022705693337149	-0.501953974538505	-0.501953974538505	-8.28532786145968e-05	10
7	14	4	21	-0.995	0	420	101290	286.43	962.8	-124.1	328.8	380.2	34.1	52.2	0	1.23194272411362	984.38867652	39.9763412793298	456208.297709338	89.48	89.48	0.3	0.29	0	0	0	0	0	101290	1.4456734455218e-05	2.19863615320549	2.19863615320549	8.85198608759231	-1.31267388660428	44.3637183565725	-0.538409783345625	-8.84835611409139	-0.357849232514171	0.0414071075567518	-0.0061403201803208	0.207521028550067	-0.0018033427949127	-0.250880221746939	-0.0011985756111442	0.206770696592493	0.0450044984123764	0.0061403201803208	0.207521028550067	0.0414071075567518	0.0061403201803208	-0.0035542908352123	-0.262550937920918	-0.262550937920918	-0.0011366740782835	10
8	14	4	57	-4.0	0	420	101290	286.43	560.8	-120.9	-263.6	-243.2	27.1	55.5	0	1.23194272411362	984.38867652	39.9763412793298	456208.297709338	98.43	98.43	0.48	0.47	0	0	0	0	0	101290	1.4456734455218e-05	1.9987195264536	1.9987195264536	5.14935223126477	-1.22382685554223	-30.4286490902309	-0.973940616796342	-5.28956841571271	-0.386461041843666	0.0240872251241387	-0.0057247186944079	-0.142336683905538	-0.0032621041598813	-0.14997679568595	-0.001294407636861	-0.143670198784302	0.0140996447006735	0.0057247186944079	-0.142336683905538	0.0240872251241387	0.0057247186944079	-0.004954049631748	-0.156765851585526	-0.156765851585526	-0.0009456774918501	10
9	14	5	56	6.995	0	420	101290	286.43	1171.8	-146.7	1907.0	1970.6	-546.0	74.5	0	1.23194272411362	984.38867652	39.9763412793298	456208.297709338	103.61	103.61	0.71	0.72	0	0	0	0	0	101290	1.4456734455218e-05	1.89879319552965	1.89879319552965	10.7842640702183	-1.35760335734299	224.318711597617	-0.417505140463288	-19.8954110077937	-0.487099546713235	0.0504457618727913	-0.0063504876397968	1.04930000185313	-0.0013983863410041	-0.564100840994949	-0.0016314849490888	1.04763325665207	-0.0777163324950356	0.0063504876397968	1.04930000185313	0.0504457618727913	0.0063504876397968	-0.0029658723110004	-0.578319128717427	-0.578319128717427	-0.001980533470347	10
10	14	6	31	4.005	0	420	101290	286.43	1721.2	-79.8	1243.7	1287.6	239.7	43.2	0	1.23194272411362	984.38867652	39.9763412793298	456208.297709338	82.02	82.02	0.78	0.74	0	0	0	0	0	101290	1.4456734455218e-05	2.39860964385305	2.39860964385305	15.840435328452	-0.689937624871104	161.096638496015	-0.0634841834476939	-14.0995980628282	-0.286719831926474	0.0740971125463421	-0.0032273346521106	0.753564880381553	-0.0002126331065158	-0.399770335069552	-0.0009603357127916	0.756899847800974	0.0212845350203259	0.0032273346521106	0.753564880381553	0.0740971125463421	0.0032273346521106	-0.0010524531024497	-0.420654826183898	-0.420654826183898	-0.001031497570726	10
11	14	7	23	-1.0	0	420	101290	286.43	-909.6	-262.6	653.7	733.1	-1546.8	133.2	0	1.23194272411362	984.38867652	39.9763412793298	456208.297709338	123.03	123.03	0.54	0.5	0	0	0	0	0	101290	1.4456734455218e-05	1.59907309590204	1.59907309590204	-8.37396026915223	-2.53109242537069	47.0757257609248	-1.31615100685147	-11.2080684912761	-0.882304415391811	-0.039171036884793	-0.0118397402861159	0.220207038353463	-0.0044082992334839	-0.317785888383062	-0.0029551790469512	0.220857128611209	-0.0353219282124511	0.0118397402861159	0.220207038353463	-0.039171036884793	0.0118397402861159	-0.007795760506329	-0.306745415365324	-0.306745415365324	-0.0028186741780244	10
12	14	8	7	6.995	0	420	101290	286.43	2215.1	-213.2	1664.1	1787.7	377.7	121.6	0	1.23194272411362	984.38867652	39.9763412793298	456208.297709338	82.02	82.02	0.36	0.33	0	0	0	0	0	101290	1.4456734455218e-05	2.39860964385305	2.39860964385305	20.3828380696984	-1.83347275103239	220.910767774223	0.0210860254689268	-18.0343517987726	-0.796578034600929	0.0953451982314874	-0.0085764711617414	1.03335859672141	7.06252621682517e-05	-0.511333644351516	-0.0026680482110801	1.0372784826568	-0.0312097045974019	0.0085764711617414	1.03335859672141	0.0953451982314874	0.0085764711617414	-0.0020042895675442	-0.538206971487114	-0.538206971487114	-0.0028922771983266	10
13	14	8	29	6.995	0	420	101290	286.43	2214.6	-211.8	1664.5	1787.2	376.5	120.7	0	1.23194272411362	984.38867652	39.9763412793298	456208.297709338	82.02	82.02	2.83	2.51	0	0	0	0	0	101290	1.4456734455218e-05	2.39860964385305	2.39860964385305	20.3782411065109	-1.82223790844083	220.875051979465	0.0183831699006	-18.0450441619338	-0.790702893971995	0.0953236949273414	-0.0085239177199523	1.03319152825335	6.15723525339872e-05	-0.511636808284602	-0.0026483700907153	1.03711003898458	-0.0312107017941598	0.0085239177199523	1.03319152825335	0.0953236949273414	0.0085239177199523	-0.0020009694574913	-0.538504074650097	-0.538504074650097	-0.0028723412144264	10
14	14	8	50	6.995	0	420	101290	286.43	2215.3	-212.7	1662.7	1786.1	377.0	121.0	0	1.23194272411362	984.38867652	39.9763412793298	456208.297709338	82.02	82.02	4.73	4.5	0	0	0	0	0	101290	1.4456734455218e-05	2.39860964385305	2.39860964385305	20.3847002121964	-1.83288565699547	220.709365550279	0.018439825176817	-18.0453411937556	-0.792676340968257	0.0953539088116821	-0.0085737249005417	1.03241649361975	6.17621129865644e-05	-0.511645230121196	-0.0026549799286713	1.0363444526312	-0.0310863269671575	0.0085737249005417	1.03241649361975	0.0953539088116821	0.0085737249005417	-0.002013909956942	-0.538521012359677	-0.538521012359677	-0.0028804777832352	10
15	14	9	12	6.995	0	420	101290	286.43	2214.4	-209.9	1664.1	1785.0	377.5	120.1	0	1.23194272411362	984.38867652	39.9763412793298	456208.297709338	82.02	82.02	7.77	7.62	0	0	0	0	0	101290	1.4456734455218e-05	2.39860964385305	2.39860964385305	20.3764060903615	-1.79932802158364	220.739955352138	0.0133108451086089	-18.0301766154363	-0.786757125295455	0.0953151112365948	-0.0084167516964383	1.0325595841311	4.45831731950547e-05	-0.511215264066212	-0.0026351541839221	1.03648175321432	-0.031142261716146	0.0084167516964383	1.0325595841311	0.0953151112365948	0.0084167516964383	-0.0019894614128509	-0.538080111092991	-0.538080111092991	-0.0028578221954376	10
16	14	9	33	6.995	0	420	101290	286.43	2214.7	-210.0	1664.8	1785.2	377.2	120.9	0	1.23194272411362	984.38867652	39.9763412793298	456208.297709338	82.02	82.02	7.43	7.73	0	0	0	0	0	101290	1.4456734455218e-05	2.39860964385305	2.39860964385305	20.3791565586293	-1.79107455274013	220.787787066971	0.0139253338581718	-18.0369678168521	-0.791939795371551	0.0953279771555275	-0.0083781442846397	1.03278332747424	4.66413338997011e-05	-0.511407817134281	-0.0026525129523346	1.0367053980339	-0.0311567396355052	0.0083781442846397	1.03278332747424	0.0953279771555275	0.0083781442846397	-0.0019745039539269	-0.538276290458502	-0.538276290458502	-0.0028732301986335	10
17	14	10	22	-3.995	0	420	101290	286.43	-42.5	-190.5	-175.1	-130.8	-469.6	97.8	0	1.23194272411362	984.38867652	39.9763412793298	456208.297709338	109.36	109.36	4.57	4.49	0	0	0	0	0	101290	1.4456734455218e-05	1.79895723288979	1.79895723288979	-0.400882605081458	-1.81502794959705	-30.3158727113104	-1.19374356344827	-5.88772622689906	-0.661150825463281	-0.0018752163618406	-0.0084901915551832	-0.14180914764355	-0.0039983093188632	-0.166936552094387	-0.0022144500607717	-0.141333925162103	-0.011750420846369	0.0084901915551832	-0.14180914764355	-0.0018752163618406	0.0084901915551832	-0.0065300444693357	-0.166408016796579	-0.166408016796579	-0.0017541248354616	10
18	14	11	17	-0.505	0	420	101290	286.43	264.8	-173.4	554.3	611.6	-597.4	88.1	0	1.23194272411362	984.38867652	39.9763412793298	456208.297709338	103.61	103.61	2.14	2.09	0	0	0	0	0	101290	1.4456734455218e-05	1.89879319552965	1.89879319552965	2.43300244497927	-1.64842907535441	56.8296845403585	-0.778878631821631	-10.2742181481868	-0.589528333877701	0.011380902876283	-0.0077108887595916	0.265833321120701	-0.002608766059337	-0.291308136116784	-0.0019745586097807	0.265722686563238	0.0137234621708995	0.0077108887595916	0.265833321120701	0.011380902876283	0.0077108887595916	-0.0047993205586832	-0.294515877374506	-0.294515877374506	-0.0019321816685836	10
19	14	12	4	-3.995	0	420	101290	286.43	1000.4	-72.2	-333.6	-326.6	397.4	25.2	0	1.23194272411362	984.38867652	39.9763412793298	456208.297709338	89.48	89.48	7.64	7.76	0	0	0	0	0	101290	1.4456734455218e-05	2.19863615320549	2.19863615320549	9.19359826775637	-0.818685190349725	-30.7349823864925	-0.776281440356422	-4.74528782772682	-0.189734821220439	0.0430050734987201	-0.0038295796442164	-0.143769625125848	-0.002600067059689	-0.134544637119344	-0.0006354953668668	-0.146416422692292	0.0328842305892832	0.0038295796442164	-0.143769625125848	0.0430050734987201	0.0038295796442164	-0.0037147794832476	-0.146665744737324	-0.146665744737324	-0.0003751446676812	10
20	14	12	40	-0.505	0	420	101290	286.43	1321.4	-120.4	354.6	417.6	305.9	52.0	0	1.23194272411362	984.38867652	39.9763412793298	456208.297709338	82.02	82.02	4.38	4.37	0	0	0	0	0	101290	1.4456734455218e-05	2.39860964385305	2.39860964385305	12.153748174306	-1.24356488978965	54.8874349601819	-0.290441931509963	-8.79814729830661	-0.356527687566401	0.0568518243128019	-0.0058170476812538	0.256748022468779	-0.0009728024652048	-0.249456635413464	-0.0011941492455144	0.25623696926109	0.0591125414206971	0.0058170476812538	0.256748022468779	0.0568518243128019	0.0058170476812538	-0.0026227781421153	-0.265480490849834	-0.265480490849834	-0.0011709862237086	10
21	14	13	20	-0.995	0	420	101290	286.43	767.6	-155.4	356.4	417.2	-124.3	73.2	0	1.23194272411362	984.38867652	39.9763412793298	456208.297709338	93.74	93.74	2.19	2.12	0	0	0	0	0	101290	1.4456734455218e-05	2.09871946862415	2.09871946862415	7.05617898239799	-1.5539034799887	44.4324401312455	-0.635117389584768	-9.01141874594084	-0.494379693133641	0.033006825719415	-0.0072687245429465	0.207842489732588	-0.0021272540058884	-0.255503587794772	-0.0016558689777585	0.207237981484307	0.0366110654396029	0.0072687245429465	0.207842489732588	0.033006825719415	0.0072687245429465	-0.0042040903369698	-0.264806659598261	-0.264806659598261	-0.0015826146237276	10
22	14	15	12	-4.0	0	420	101290	286.43	-884.3	-304.8	-53.2	37.0	-1162.0	164.7	0	1.23194272411362	984.38867652	39.9763412793298	456208.297709338	123.03	123.03	2.18	2.11	0	0	0	0	0	101290	1.4456734455218e-05	1.59907309590204	1.59907309590204	-8.14528336643401	-2.81694942486173	-29.5658659682708	-1.48374381982093	-6.7136145178895	-1.09589862735209	-0.0381013504875369	-0.0131768991346106	-0.138300826508606	-0.0049696324430509	-0.1903532223674	-0.0036705887499104	-0.135306116791306	-0.0476559154858548	0.0131768991346106	-0.138300826508606	-0.0381013504875368	0.0131768991346106	-0.0089184751391627	-0.179614243635889	-0.179614243635889	-0.0030395260033162	10
23	14	15	32	-4.0	0	420	101290	286.43	-884.7	-305.1	-53.0	36.8	-1161.8	165.5	0	1.23194272411362	984.38867652	39.9763412793298	456208.297709338	123.03	123.03	4.43	4.34	0	0	0	0	0	101290	1.4456734455218e-05	1.59907309590204	1.59907309590204	-8.1489687442232	-2.81188286512765	-29.5609682880032	-1.48489378347092	-6.70716687564013	-1.10108795143683	-0.0381185896509285	-0.0131531991895614	-0.138277916534323	-0.0049734841164914	-0.190170410340351	-0.0036879698051738	-0.135282060081321	-0.0476715145364913	0.0131531991895614	-0.138277916534323	-0.0381185896509285	0.0131531991895614	-0.0089168662432849	-0.179426572699467	-0.179426572699467	-0.0030569769501056	10
24	14	15	50	-4.0	0	420	101290	286.43	-885.1	-304.4	-52.6	36.6	-1162.8	165.0	0	1.23194272411362	984.38867652	39.9763412793298	456208.297709338	123.03	123.03	7.98	7.86	0	0	0	0	0	101290	1.4456734455218e-05	1.59907309590204	1.59907309590204	-8.15264684310623	-2.80688370351389	-29.5733291430201	-1.48929807791228	-6.71625037078629	-1.09782680890442	-0.0381357947656391	-0.0131298145140111	-0.138335737146343	-0.0049882358035765	-0.190427957532973	-0.0036770469763715	-0.135338539677104	-0.0476927111024114	0.0131298145140111	-0.138335737146343	-0.0381357947656391	0.0131298145140111	-0.008924245073207	-0.179679270579438	-0.179679270579438	-0.0030455660076095	10
25	14	16	12	-4.0	0	420	101290	286.43	-885.8	-302.3	-51.9	36.4	-1163.0	164.0	0	1.23194272411362	984.38867652	39.9763412793298	456208.297709338	123.03	123.03	0.64	0.64	0	0	0	0	0	101290	1.4456734455218e-05	1.59907309590204	1.59907309590204	-8.15909520269594	-2.78571525850967	-29.5476058938864	-1.48157399451652	-6.71207708869735	-1.09128564499952	-0.0381659583827588	-0.0130307944669363	-0.138215411003368	-0.0049623648581184	-0.190309631154335	-0.0036551380862229	-0.135216402535	-0.0477144077150427	0.0130307944669363	-0.138215411003368	-0.0381659583827588	0.0130307944669363	-0.0088690677521119	-0.179552442495779	-0.179552442495779	-0.0030275594617664	10
26	14	16	34	-4.0	0	420	101290	286.43	-884.7	-304.7	-53.1	36.3	-1162.1	165.5	0	1.23194272411362	984.38867652	39.9763412793298	456208.297709338	123.03	123.03	0.43	0.43	0	0	0	0	0	101290	1.4456734455218e-05	1.59907309590204	1.59907309590204	-8.14896656307965	-2.80550532805733	-29.6052083345473	-1.48465863686086	-6.71105828508854	-1.10107520126195	-0.0381185794481508	-0.0131233668603186	-0.138484859060829	-0.0049726965194638	-0.190280744695427	-0.0036879270999023	-0.135488499217944	-0.0476859399394839	0.0131233668603186	-0.138484859060829	-0.0381185794481508	0.0131233668603186	-0.0089076897375568	-0.179536909930226	-0.179536909930226	-0.0030575744695428	10
27	14	17	22	4.995	0	420	101290	286.43	1510.4	-117.8	1455.8	1521.6	-14.1	58.0	0	1.23194272411362	984.38867652	39.9763412793298	456208.297709338	89.48	89.48	0.28	0.27	0	0	0	0	0	101290	1.4456734455218e-05	2.19863615320549	2.19863615320549	13.8992998905272	-1.10453917841426	182.16699028537	-0.135437210825326	-15.6050120769356	-0.383788295681904	0.0650170255393102	-0.0051667244061027	0.852126074916564	-0.0004536316498323	-0.44245381173012	-0.0012854555752853	0.854550910698367	-0.0094234912469319	0.0051667244061027	0.852126074916564	0.0650170255393102	0.0051667244061027	-0.0017907119929072	-0.460779053369025	-0.460779053369025	-0.0014364889594843	10
28	14	18	5	2.005	0	420	101290	286.43	431.6	-181.4	1065.1	1133.9	-690.5	90.4	0	1.23194272411362	984.38867652	39.9763412793298	456208.297709338	103.61	103.61	0.26	0.26	0	0	0	0	0	101290	1.4456734455218e-05	1.89879319552965	1.89879319552965	3.97673914291615	-1.73446367686702	117.85247495226	-0.720147591677829	-13.2815470041133	-0.597524808367844	0.0186020700650086	-0.0081133344890791	0.551280815162798	-0.0024120530697941	-0.376575876306318	-0.0020013418984626	0.55159413395946	-0.0006968204758435	0.0081133344890791	0.551280815162798	0.0186020700650086	0.0081133344890791	-0.0046259233871952	-0.381818924970841	-0.381818924970841	-0.0021619624716752	10
29	14	18	43	6.995	0	420	101290	286.43	64.9	-69.2	2172.1	2165.3	-1519.9	28.7	0	1.23194272411362	984.38867652	39.9763412793298	456208.297709338	123.03	123.03	0.7	0.69	0	0	0	0	0	101290	1.4456734455218e-05	1.59907309590204	1.59907309590204	0.600409954973968	-0.690604557942096	228.578059627886	-0.8214147921198	-21.7913388331947	-0.185619758951046	0.0028085493286754	-0.0032304543779134	1.06922403700929	-0.0027512361268761	-0.617856678477045	-0.0006217124302938	1.06160760324252	-0.127425374260565	0.0032304543779134	1.06922403700929	0.0028085493286754	0.0032304543779134	-0.0035587802525165	-0.618648276441976	-0.618648276441976	-0.0010504828535098	10
30	14	19	4	6.995	0	420	101290	286.43	64.3	-68.6	2172.0	2164.9	-1519.6	28.6	0	1.23194272411362	984.38867652	39.9763412793298	456208.297709338	123.03	123.03	0.64	0.64	0	0	0	0	0	101290	1.4456734455218e-05	1.59907309590204	1.59907309590204	0.594888161581338	-0.68226764609569	228.554731926435	-0.817519686252932	-21.7816556430377	-0.184953513791825	0.0027827199282841	-0.0031914566431565	1.06911491656632	-0.0027381899094452	-0.617582127943308	-0.0006194809173372	1.06149614943188	-0.127437722422013	0.0031914566431565	1.06911491656632	0.002782719928284	0.0031914566431565	-0.0035351930864154	-0.618366445815069	-0.618366445815069	-0.0010453954407796	10
31	14	19	24	6.995	0	420	101290	286.43	62.4	-67.0	2172.5	2164.3	-1520.7	27.2	0	1.23194272411362	984.38867652	39.9763412793298	456208.297709338	123.03	123.03	0.43	0.43	0	0	0	0	0	101290	1.4456734455218e-05	1.59907309590204	1.59907309590204	0.577412510806783	-0.674003455404189	228.521479159144	-0.82656633519803	-21.7775250392579	-0.175835164617444	0.0027009737366288	-0.0031527990775609	1.06895936944976	-0.0027684906389228	-0.617465011636182	-0.000588940036035	1.06133180481212	-0.127499917206998	0.0031527990775609	1.06895936944976	0.0027009737366288	0.0031527990775609	-0.0035581729826141	-0.618226289101177	-0.618226289101177	-0.0010178804363093	10
32	14	19	42	6.995	0	420	101290	286.43	63.1	-67.9	2171.9	2164.4	-1520.9	27.6	0	1.23194272411362	984.38867652	39.9763412793298	456208.297709338	123.03	123.03	0.28	0.27	0	0	0	0	0	101290	1.4456734455218e-05	1.59907309590204	1.59907309590204	0.5838591273636	-0.68342575370122	228.485896705875	-0.825165447297513	-21.7868809748832	-0.17845351424612	0.0027311292003297	-0.0031968739456364	1.06879292471577	-0.0027637985230289	-0.617730283419333	-0.0005977099025632	1.06117027137701	-0.127449716103366	0.0031968739456364	1.06879292471577	0.0027311292003297	0.0031968739456364	-0.0035647779409422	-0.618500060291283	-0.618500060291283	-0.0010273893966542	10
33	14	20	1	6.995	0	420	101290	286.43	63.5	-68.0	2171.6	2163.9	-1520.1	27.9	0	1.23194272411362	984.38867652	39.9763412793298	456208.297709338	123.03	123.03	0.26	0.26	0	0	0	0	0	101290	1.4456734455218e-05	1.59907309590204	1.59907309590204	0.587539717520798	-0.681322769912416	228.456460339241	-0.826221647377322	-21.7804026162977	-0.180400734098485	0.002748345968522	-0.0031870367774494	1.06865522965081	-0.0027673361459748	-0.61754660048235	-0.0006042318956612	1.06103569791129	-0.127415858602819	0.0031870367774494	1.06865522965081	0.0027483459685219	0.0031870367774494	-0.0035647429687594	-0.61832122995152	-0.61832122995152	-0.0010338585861343	10
34	14	20	45	-3.995	0	420	101290	286.43	1338.2	-24.6	-387.2	-393.5	680.5	-5.5	0	1.23194272411362	984.38867652	39.9763412793298	456208.297709338	82.02	82.02	0.7	0.69	0	0	0	0	0	101290	1.4456734455218e-05	2.39860964385305	2.39860964385305	12.3013161065163	-0.436407762080044	-31.1672221507133	-0.598352785048413	-4.34575125394945	0.009798370259837	0.0575421057005602	-0.0020413930799528	-0.145791521481117	-0.0020041151128941	-0.123216451077459	3.28185351688194e-05	-0.149446192706176	0.047245075403282	0.0020413930799528	-0.145791521481117	0.0575421057005602	0.0020413930799528	-0.0025709335535806	-0.139434864371938	-0.139434864371938	0.0002118542390109	10
35	14	21	13	-3.995	0	420	101290	286.43	1339.3	-25.9	-386.2	-392.3	680.9	-4.5	0	1.23194272411362	984.38867652	39.9763412793298	456208.297709338	82.02	82.02	0.47	0.46	0	0	0	0	0	101290	1.4456734455218e-05	2.39860964385305	2.39860964385305	12.3114232519622	-0.444825071323136	-31.0223170684566	-0.603939467308831	-4.3512073682567	0.0032804717423622	0.0575893840914689	-0.0020807668911764	-0.145113696158398	-0.0020228270745141	-0.123371150001149	1.09875698092698e-05	-0.148773308266311	0.0473394626108486	0.0020807668911764	-0.145113696158398	0.0575893840914689	0.0020807668911764	-0.0026021916581469	-0.139602888850443	-0.139602888850443	0.0001922540539776	10
36	14	21	35	-3.995	0	420	101290	286.43	1339.8	-26.4	-385.8	-392.8	680.9	-4.1	0	1.23194272411362	984.38867652	39.9763412793298	456208.297709338	82.02	82.02	0.3	0.29	0	0	0	0	0	101290	1.4456734455218e-05	2.39860964385305	2.39860964385305	12.3160253191118	-0.4478767188685	-31.0285005285093	-0.621678471225317	-4.35605626784585	0.0006740690779112	0.0576109112705183	-0.0020950416422759	-0.1451426206498	-0.0020822418657962	-0.123508632375103	2.25771828916505e-06	-0.14880366226114	0.0473589223292066	0.0020950416422759	-0.1451426206498	0.0576109112705183	0.0020950416422759	-0.0026660838878202	-0.139746438723711	-0.139746438723711	0.0001879967493859	10
37	14	21	55	-3.995	0	420	101290	286.43	1337.9	-26.5	-385.0	-391.9	680.1	-4.3	0	1.23194272411362	984.38867652	39.9763412793298	456208.297709338	82.02	82.02	0.48	0.47	0	0	0	0	0	101290	1.4456734455218e-05	2.39860964385305	2.39860964385305	12.2985386377996	-0.45194139933319	-30.9438108834809	-0.624280002154733	-4.3480468470484	0.0019690389966538	0.0575291134811021	-0.0021140550771728	-0.144746466249427	-0.0020909553999897	-0.123281538750048	6.59507385889859e-06	-0.148402771658418	0.0473049231446122	0.0021140550771728	-0.144746466249427	0.0575291134811021	0.0021140550771728	-0.0026798200396746	-0.139496290148907	-0.139496290148907	0.0001932805554893	10
38	14	22	16	-3.995	0	420	101290	286.43	1339.1	-27.6	-385.7	-392.0	681.0	-3.7	0	1.23194272411362	984.38867652	39.9763412793298	456208.297709338	82.02	82.02	0.71	0.72	0	0	0	0	0	101290	1.4456734455218e-05	2.39860964385305	2.39860964385305	12.3095833713896	-0.462086650058184	-30.9707451360456	-0.625288630430627	-4.34799577822059	-0.0019534097872495	0.0575807776463158	-0.0021615117138873	-0.144872457126714	-0.0020943336865483	-0.123280090779523	-6.54272558618651e-06	-0.148532055807142	0.0473476840615257	0.0021615117138873	-0.144872457126714	0.0575807776463158	0.0021615117138873	-0.0026974487128464	-0.139509403876704	-0.139509403876704	0.0001814028585663	10
39	14	22	57	3.995	0	420	101290	286.43	1169.0	-98.2	1338.1	1380.8	-222.8	50.1	0	1.23194272411362	984.38867652	39.9763412793298	456208.297709338	93.74	93.74	0.78	0.74	0	0	0	0	0	101290	1.4456734455218e-05	2.09871946862415	2.09871946862415	10.7602887152661	-0.900542507992106	161.23313725072	-0.289347625212894	-14.744524655956	-0.330780552274794	0.0503336118884381	-0.004212485211666	0.754203383262318	-0.0009691372097855	-0.418056141450779	-0.00110791212213	0.755877483526499	-0.0023336040174553	0.004212485211666	0.754203383262318	0.0503336118884381	0.004212485211666	-0.0020740112188403	-0.432242819367271	-0.432242819367271	-0.0012497152018261	10
