run	hr	min	sec	AoA	AoS	dPb	pBar	temp	B1	B2	B3	B4	B5	B6	rpmWT	rho	q	V	Re	rpsM1	rpsM2	iM1	iM2	dPtQ	tM1	tM2	vM1	vM2	pInf	nu	J_M1	J_M2	FX	FY	FZ	MX	MY	MZ	CFX	CFY	CFZ	CMX	CMY	CMZ	CN	CT	CY	CL	CD	CYaw	CMroll	CMpitch	CMpitch25c	CMyaw
1	14	0	8	7	0	420	101290	286.43	1442.5	-155.8	1849.1	1925	-306.4	77.8	0	1.23194272411362	984.38867652	39.9763412793298	456208.297709338	98.43	98.43	0.64	0.64	0	0	0	0	0	101290	1.4456734455218e-05	1.9987195264536	1.9987195264536	13.2747399213173	-1.46092587405618	223.861184144109	-0.335150955395857	-19.4133622311448	-0.509370623752683	0.0620955092191517	-0.0068338013865925	1.04715981678166	-0.00112255029406342	-0.550433160533274	-0.00170607940772682	1.04692198523701	-0.0659840206017581	0.0068338013865925	1.04715981678166	0.0620955092191517	0.0068338013865925	-0.00281803434271766	-0.567934964125379	-0.567934964125379	-0.00203679454557391
2	14	0	53	1.507	0	420	101290	286.43	400.3	-95.8	1000.4	1016.6	-686.8	45	0	1.23194272411362	984.38867652	39.9763412793298	456208.297709338	103.61	103.61	0.43	0.43	0	0	0	0	0	101290	1.4456734455218e-05	1.89879319552965	1.89879319552965	3.6877839747272	-0.925059835613591	106.837201882518	-0.712960279523638	-12.8550205999754	-0.303445197757347	0.0172504188525141	-0.00432717039211949	0.499754457998148	-0.00238797997902019	-0.364482439121909	-0.00101635543772301	0.500035272758345	0.00410137014872631	0.00432717039211949	0.499754457998148	0.0172504188525141	0.00432717039211949	-0.00357962878530472	-0.369344520880071	-0.369344520880071	-0.00111014484136031
3	14	1	39	-0.002	0	420	101290	286.43	-870.8	-167.6	901.8	921.1	-1620.5	89.9	0	1.23194272411362	984.38867652	39.9763412793298	456208.297709338	123.03	123.03	0.28	0.27	0	0	0	0	0	101290	1.4456734455218e-05	1.59907309590204	1.59907309590204	-8.00479211014517	-1.52996076947796	71.9465001350256	-1.2669138813634	-12.5357634694238	-0.596328699718011	-0.0374441718044287	-0.0071567272601324	0.336545543558707	-0.00424338503943018	-0.355430441363871	-0.00199733566755389	0.336546850401838	-0.0374324241259828	0.0071567272601324	0.336545543558707	-0.0374441718044287	0.0071567272601324	-0.00626059957743283	-0.344876690394903	-0.344876690394903	-0.00199711713018554
4	14	2	25	1.495	0	420	101290	286.43	1447.9	-70.1	778.5	812	225.7	35	0	1.23194272411362	984.38867652	39.9763412793298	456208.297709338	82.02	82.02	0.26	0.26	0	0	0	0	0	101290	1.4456734455218e-05	2.39860964385305	2.39860964385305	13.3258416127889	-0.633996483855698	103.10835762711	-0.157867890599475	-11.174994012601	-0.240248823943497	0.062334548595644	-0.00296565768832515	0.482311970671776	-0.00052876067981456	-0.316848117294602	-0.000804686317088436	0.483774084747077	0.0497299500205141	0.00296565768832515	0.482311970671776	0.062334548595644	0.00296565768832515	-0.00134318155234509	-0.334417294844514	-0.334417294844514	-0.000839455625717057
5	14	3	3	3	0	420	101290	286.43	-603	-48	1536.7	1507.6	-1703.5	16	0	1.23194272411362	984.38867652	39.9763412793298	456208.297709338	123.03	123.03	0.7	0.69	0	0	0	0	0	101290	1.4456734455218e-05	1.59907309590204	1.59907309590204	-5.55147734473966	-0.547438631514398	144.827045968018	-0.981068416306108	-16.5768765687815	-0.101978441022269	-0.0259682535916671	-0.00256076433825522	0.677460290852704	-0.00328597791977044	-0.470009391103106	-0.000341565277122559	0.675172781685255	-0.0613881971410344	0.00256076433825522	0.677460290852704	-0.0259682535916671	0.00256076433825522	-0.00398436834004875	-0.462690161746482	-0.462690161746482	-0.000549622900881781
6	14	3	40	4.5	0	420	101290	286.43	13.1	0.3	1727.5	1685.3	-1305.1	-5.6	0	1.23194272411362	984.38867652	39.9763412793298	456208.297709338	115.79	115.79	0.47	0.46	0	0	0	0	0	101290	1.4456734455218e-05	1.69905832100205	1.69905832100205	0.126388017799647	-0.00309274721648592	177.173780385919	-0.676538655916921	-17.6976608792662	0.028539013597641	0.000591207690017745	-1.44670038307425e-05	0.828769239816045	-0.0022659898619349	-0.501787340896186	9.5588204629978e-05	0.826260806458189	-0.0644350999290054	1.44670038307425e-05	0.828769239816045	0.000591207690017734	1.44670038307425e-05	-0.00227056933371496	-0.501953974538505	-0.501953974538505	-8.28532786145968e-05
7	14	4	21	-0.995	0	420	101290	286.43	962.8	-124.1	328.8	380.2	34.1	52.2	0	1.23194272411362	984.38867652	39.9763412793298	456208.297709338	89.48	89.48	0.3	0.29	0	0	0	0	0	101290	1.4456734455218e-05	2.19863615320549	2.19863615320549	8.85198608759231	-1.31267388660428	44.3637183565725	-0.538409783345625	-8.84835611409139	-0.357849232514171	0.0414071075567518	-0.00614032018032088	0.207521028550067	-0.00180334279491278	-0.250880221746939	-0.0011985756111442	0.206770696592493	0.0450044984123764	0.00614032018032088	0.207521028550067	0.0414071075567518	0.00614032018032088	-0.00355429083521237	-0.262550937920918	-0.262550937920918	-0.00113667407828357
8	14	4	57	-4	0	420	101290	286.43	560.8	-120.9	-263.6	-243.2	27.1	55.5	0	1.23194272411362	984.38867652	39.9763412793298	456208.297709338	98.43	98.43	0.48	0.47	0	0	0	0	0	101290	1.4456734455218e-05	1.9987195264536	1.9987195264536	5.14935223126477	-1.22382685554223	-30.4286490902309	-0.973940616796342	-5.28956841571271	-0.386461041843666	0.0240872251241387	-0.00572471869440791	-0.142336683905538	-0.00326210415988137	-0.14997679568595	-0.00129440763686101	-0.143670198784302	0.0140996447006735	0.00572471869440791	-0.142336683905538	0.0240872251241387	0.00572471869440791	-0.00495404963174805	-0.156765851585526	-0.156765851585526	-0.000945677491850194
9	14	5	56	6.995	0	420	101290	286.43	1171.8	-146.7	1907	1970.6	-546	74.5	0	1.23194272411362	984.38867652	39.9763412793298	456208.297709338	103.61	103.61	0.71	0.72	0	0	0	0	0	101290	1.4456734455218e-05	1.89879319552965	1.89879319552965	10.7842640702183	-1.35760335734299	224.318711597617	-0.417505140463288	-19.8954110077937	-0.487099546713235	0.0504457618727913	-0.00635048763979684	1.04930000185313	-0.00139838634100414	-0.564100840994949	-0.00163148494908888	1.04763325665207	-0.0777163324950356	0.00635048763979684	1.04930000185313	0.0504457618727913	0.00635048763979684	-0.00296587231100044	-0.578319128717427	-0.578319128717427	-0.00198053347034706
10	14	6	31	4.005	0	420	101290	286.43	1721.2	-79.8	1243.7	1287.6	239.7	43.2	0	1.23194272411362	984.38867652	39.9763412793298	456208.297709338	82.02	82.02	0.78	0.74	0	0	0	0	0	101290	1.4456734455218e-05	2.39860964385305	2.39860964385305	15.840435328452	-0.689937624871104	161.096638496015	-0.0634841834476939	-14.0995980628282	-0.286719831926474	0.0740971125463421	-0.00322733465211061	0.753564880381553	-0.000212633106515875	-0.399770335069552	-0.000960335712791633	0.756899847800974	0.0212845350203259	0.00322733465211061	0.753564880381553	0.0740971125463421	0.00322733465211061	-0.00105245310244979	-0.420654826183898	-0.420654826183898	-0.00103149757072609
11	14	7	23	-1	0	420	101290	286.43	-909.6	-262.6	653.7	733.1	-1546.8	133.2	0	1.23194272411362	984.38867652	39.9763412793298	456208.297709338	123.03	123.03	0.54	0.5	0	0	0	0	0	101290	1.4456734455218e-05	1.59907309590204	1.59907309590204	-8.37396026915223	-2.53109242537069	47.0757257609248	-1.31615100685147	-11.2080684912761	-0.882304415391811	-0.039171036884793	-0.0118397402861159	0.220207038353463	-0.00440829923348399	-0.317785888383062	-0.00295517904695125	0.220857128611209	-0.0353219282124511	0.0118397402861159	0.220207038353463	-0.039171036884793	0.0118397402861159	-0.00779576050632903	-0.306745415365324	-0.306745415365324	-0.00281867417802449
12	14	8	7	6.995	0	420	101290	286.43	2215.1	-213.2	1664.1	1787.7	377.7	121.6	0	1.23194272411362	984.38867652	39.9763412793298	456208.297709338	82.02	82.02	0.36	0.33	0	0	0	0	0	101290	1.4456734455218e-05	2.39860964385305	2.39860964385305	20.3828380696984	-1.83347275103239	220.910767774223	0.0210860254689268	-18.0343517987726	-0.796578034600929	0.0953451982314874	-0.00857647116174143	1.03335859672141	7.06252621682517e-05	-0.511333644351516	-0.00266804821108019	1.0372784826568	-0.0312097045974019	0.00857647116174143	1.03335859672141	0.0953451982314874	0.00857647116174143	-0.00200428956754422	-0.538206971487114	-0.538206971487114	-0.00289227719832669
13	14	8	29	6.995	0	420	101290	286.43	2214.6	-211.8	1664.5	1787.2	376.5	120.7	0	1.23194272411362	984.38867652	39.9763412793298	456208.297709338	82.02	82.02	2.83	2.51	0	0	0	0	0	101290	1.4456734455218e-05	2.39860964385305	2.39860964385305	20.3782411065109	-1.82223790844083	220.875051979465	0.0183831699006	-18.0450441619338	-0.790702893971995	0.0953236949273414	-0.00852391771995236	1.03319152825335	6.15723525339872e-05	-0.511636808284602	-0.00264837009071534	1.03711003898458	-0.0312107017941598	0.00852391771995236	1.03319152825335	0.0953236949273414	0.00852391771995236	-0.00200096945749135	-0.538504074650097	-0.538504074650097	-0.00287234121442648
14	14	8	50	6.995	0	420	101290	286.43	2215.3	-212.7	1662.7	1786.1	377	121	0	1.23194272411362	984.38867652	39.9763412793298	456208.297709338	82.02	82.02	4.73	4.5	0	0	0	0	0	101290	1.4456734455218e-05	2.39860964385305	2.39860964385305	20.3847002121964	-1.83288565699547	220.709365550279	0.018439825176817	-18.0453411937556	-0.792676340968257	0.0953539088116821	-0.00857372490054172	1.03241649361975	6.17621129865644e-05	-0.511645230121196	-0.00265497992867136	1.0363444526312	-0.0310863269671575	0.00857372490054172	1.03241649361975	0.0953539088116821	0.00857372490054172	-0.00201390995694201	-0.538521012359677	-0.538521012359677	-0.00288047778323524
15	14	9	12	6.995	0	420	101290	286.43	2214.4	-209.9	1664.1	1785	377.5	120.1	0	1.23194272411362	984.38867652	39.9763412793298	456208.297709338	82.02	82.02	7.77	7.62	0	0	0	0	0	101290	1.4456734455218e-05	2.39860964385305	2.39860964385305	20.3764060903615	-1.79932802158364	220.739955352138	0.0133108451086089	-18.0301766154363	-0.786757125295455	0.0953151112365948	-0.00841675169643837	1.0325595841311	4.45831731950547e-05	-0.511215264066212	-0.00263515418392216	1.03648175321432	-0.031142261716146	0.00841675169643837	1.0325595841311	0.0953151112365948	0.00841675169643837	-0.00198946141285096	-0.538080111092991	-0.538080111092991	-0.00285782219543767
16	14	9	33	6.995	0	420	101290	286.43	2214.7	-210	1664.8	1785.2	377.2	120.9	0	1.23194272411362	984.38867652	39.9763412793298	456208.297709338	82.02	82.02	7.43	7.73	0	0	0	0	0	101290	1.4456734455218e-05	2.39860964385305	2.39860964385305	20.3791565586293	-1.79107455274013	220.787787066971	0.0139253338581718	-18.0369678168521	-0.791939795371551	0.0953279771555275	-0.00837814428463971	1.03278332747424	4.66413338997011e-05	-0.511407817134281	-0.00265251295233469	1.0367053980339	-0.0311567396355052	0.00837814428463971	1.03278332747424	0.0953279771555275	0.00837814428463971	-0.00197450395392695	-0.538276290458502	-0.538276290458502	-0.0028732301986335
17	14	10	22	-3.995	0	420	101290	286.43	-42.5	-190.5	-175.1	-130.8	-469.6	97.8	0	1.23194272411362	984.38867652	39.9763412793298	456208.297709338	109.36	109.36	4.57	4.49	0	0	0	0	0	101290	1.4456734455218e-05	1.79895723288979	1.79895723288979	-0.400882605081458	-1.81502794959705	-30.3158727113104	-1.19374356344827	-5.88772622689906	-0.661150825463281	-0.00187521636184064	-0.00849019155518326	-0.14180914764355	-0.00399830931886321	-0.166936552094387	-0.00221445006077178	-0.141333925162103	-0.011750420846369	0.00849019155518326	-0.14180914764355	-0.00187521636184064	0.00849019155518326	-0.00653004446933574	-0.166408016796579	-0.166408016796579	-0.0017541248354616
18	14	11	17	-0.505	0	420	101290	286.43	264.8	-173.4	554.3	611.6	-597.4	88.1	0	1.23194272411362	984.38867652	39.9763412793298	456208.297709338	103.61	103.61	2.14	2.09	0	0	0	0	0	101290	1.4456734455218e-05	1.89879319552965	1.89879319552965	2.43300244497927	-1.64842907535441	56.8296845403585	-0.778878631821631	-10.2742181481868	-0.589528333877701	0.011380902876283	-0.00771088875959162	0.265833321120701	-0.00260876605933701	-0.291308136116784	-0.00197455860978074	0.265722686563238	0.0137234621708995	0.00771088875959162	0.265833321120701	0.011380902876283	0.00771088875959162	-0.00479932055868326	-0.294515877374506	-0.294515877374506	-0.00193218166858362
19	14	12	4	-3.995	0	420	101290	286.43	1000.4	-72.2	-333.6	-326.6	397.4	25.2	0	1.23194272411362	984.38867652	39.9763412793298	456208.297709338	89.48	89.48	7.64	7.76	0	0	0	0	0	101290	1.4456734455218e-05	2.19863615320549	2.19863615320549	9.19359826775637	-0.818685190349725	-30.7349823864925	-0.776281440356422	-4.74528782772682	-0.189734821220439	0.0430050734987201	-0.00382957964421647	-0.143769625125848	-0.00260006705968903	-0.134544637119344	-0.000635495366866874	-0.146416422692292	0.0328842305892832	0.00382957964421647	-0.143769625125848	0.0430050734987201	0.00382957964421647	-0.00371477948324761	-0.146665744737324	-0.146665744737324	-0.00037514466768124
20	14	12	40	-0.505	0	420	101290	286.43	1321.4	-120.4	354.6	417.6	305.9	52	0	1.23194272411362	984.38867652	39.9763412793298	456208.297709338	82.02	82.02	4.38	4.37	0	0	0	0	0	101290	1.4456734455218e-05	2.39860964385305	2.39860964385305	12.153748174306	-1.24356488978965	54.8874349601819	-0.290441931509963	-8.79814729830661	-0.356527687566401	0.0568518243128019	-0.00581704768125386	0.256748022468779	-0.000972802465204866	-0.249456635413464	-0.00119414924551446	0.25623696926109	0.0591125414206971	0.00581704768125386	0.256748022468779	0.0568518243128019	0.00581704768125386	-0.00262277814211533	-0.265480490849834	-0.265480490849834	-0.00117098622370869
21	14	13	20	-0.995	0	420	101290	286.43	767.6	-155.4	356.4	417.2	-124.3	73.2	0	1.23194272411362	984.38867652	39.9763412793298	456208.297709338	93.74	93.74	2.19	2.12	0	0	0	0	0	101290	1.4456734455218e-05	2.09871946862415	2.09871946862415	7.05617898239799	-1.5539034799887	44.4324401312455	-0.635117389584768	-9.01141874594084	-0.494379693133641	0.033006825719415	-0.0072687245429465	0.207842489732588	-0.00212725400588843	-0.255503587794772	-0.00165586897775859	0.207237981484307	0.0366110654396029	0.0072687245429465	0.207842489732588	0.033006825719415	0.0072687245429465	-0.00420409033696982	-0.264806659598261	-0.264806659598261	-0.00158261462372761
22	14	15	12	-4	0	420	101290	286.43	-884.3	-304.8	-53.2	37	-1162	164.7	0	1.23194272411362	984.38867652	39.9763412793298	456208.297709338	123.03	123.03	2.18	2.11	0	0	0	0	0	101290	1.4456734455218e-05	1.59907309590204	1.59907309590204	-8.14528336643401	-2.81694942486173	-29.5658659682708	-1.48374381982093	-6.7136145178895	-1.09589862735209	-0.0381013504875369	-0.0131768991346106	-0.138300826508606	-0.00496963244305092	-0.1903532223674	-0.00367058874991048	-0.135306116791306	-0.0476559154858548	0.0131768991346106	-0.138300826508606	-0.0381013504875368	0.0131768991346106	-0.00891847513916274	-0.179614243635889	-0.179614243635889	-0.00303952600331621
23	14	15	32	-4	0	420	101290	286.43	-884.7	-305.1	-53	36.8	-1161.8	165.5	0	1.23194272411362	984.38867652	39.9763412793298	456208.297709338	123.03	123.03	4.43	4.34	0	0	0	0	0	101290	1.4456734455218e-05	1.59907309590204	1.59907309590204	-8.1489687442232	-2.81188286512765	-29.5609682880032	-1.48489378347092	-6.70716687564013	-1.10108795143683	-0.0381185896509285	-0.0131531991895614	-0.138277916534323	-0.00497348411649143	-0.190170410340351	-0.00368796980517388	-0.135282060081321	-0.0476715145364913	0.0131531991895614	-0.138277916534323	-0.0381185896509285	0.0131531991895614	-0.00891686624328492	-0.179426572699467	-0.179426572699467	-0.00305697695010561
24	14	15	50	-4	0	420	101290	286.43	-885.1	-304.4	-52.6	36.6	-1162.8	165	0	1.23194272411362	984.38867652	39.9763412793298	456208.297709338	123.03	123.03	7.98	7.86	0	0	0	0	0	101290	1.4456734455218e-05	1.59907309590204	1.59907309590204	-8.15264684310623	-2.80688370351389	-29.5733291430201	-1.48929807791228	-6.71625037078629	-1.09782680890442	-0.0381357947656391	-0.0131298145140111	-0.138335737146343	-0.00498823580357658	-0.190427957532973	-0.00367704697637152	-0.135338539677104	-0.0476927111024114	0.0131298145140111	-0.138335737146343	-0.0381357947656391	0.0131298145140111	-0.00892424507320707	-0.179679270579438	-0.179679270579438	-0.00304556600760951
25	14	16	12	-4	0	420	101290	286.43	-885.8	-302.3	-51.9	36.4	-1163	164	0	1.23194272411362	984.38867652	39.9763412793298	456208.297709338	123.03	123.03	0.64	0.64	0	0	0	0	0	101290	1.4456734455218e-05	1.59907309590204	1.59907309590204	-8.15909520269594	-2.78571525850967	-29.5476058938864	-1.48157399451652	-6.71207708869735	-1.09128564499952	-0.0381659583827588	-0.0130307944669363	-0.138215411003368	-0.00496236485811848	-0.190309631154335	-0.00365513808622293	-0.135216402535	-0.0477144077150427	0.0130307944669363	-0.138215411003368	-0.0381659583827588	0.0130307944669363	-0.00886906775211199	-0.179552442495779	-0.179552442495779	-0.00302755946176642
26	14	16	34	-4	0	420	101290	286.43	-884.7	-304.7	-53.1	36.3	-1162.1	165.5	0	1.23194272411362	984.38867652	39.9763412793298	456208.297709338	123.03	123.03	0.43	0.43	0	0	0	0	0	101290	1.4456734455218e-05	1.59907309590204	1.59907309590204	-8.14896656307965	-2.80550532805733	-29.6052083345473	-1.48465863686086	-6.71105828508854	-1.10107520126195	-0.0381185794481508	-0.0131233668603186	-0.138484859060829	-0.00497269651946382	-0.190280744695427	-0.00368792709990232	-0.135488499217944	-0.0476859399394839	0.0131233668603186	-0.138484859060829	-0.0381185794481508	0.0131233668603186	-0.00890768973755687	-0.179536909930226	-0.179536909930226	-0.00305757446954282
27	14	17	22	4.995	0	420	101290	286.43	1510.4	-117.8	1455.8	1521.6	-14.1	58	0	1.23194272411362	984.38867652	39.9763412793298	456208.297709338	89.48	89.48	0.28	0.27	0	0	0	0	0	101290	1.4456734455218e-05	2.19863615320549	2.19863615320549	13.8992998905272	-1.10453917841426	182.16699028537	-0.135437210825326	-15.6050120769356	-0.383788295681904	0.0650170255393102	-0.00516672440610279	0.852126074916564	-0.000453631649832312	-0.44245381173012	-0.00128545557528536	0.854550910698367	-0.00942349124693195	0.00516672440610279	0.852126074916564	0.0650170255393102	0.00516672440610279	-0.00179071199290729	-0.460779053369025	-0.460779053369025	-0.00143648895948434
28	14	18	5	2.005	0	420	101290	286.43	431.6	-181.4	1065.1	1133.9	-690.5	90.4	0	1.23194272411362	984.38867652	39.9763412793298	456208.297709338	103.61	103.61	0.26	0.26	0	0	0	0	0	101290	1.4456734455218e-05	1.89879319552965	1.89879319552965	3.97673914291615	-1.73446367686702	117.85247495226	-0.720147591677829	-13.2815470041133	-0.597524808367844	0.0186020700650086	-0.00811333448907917	0.551280815162798	-0.00241205306979412	-0.376575876306318	-0.00200134189846263	0.55159413395946	-0.000696820475843556	0.00811333448907917	0.551280815162798	0.0186020700650086	0.00811333448907917	-0.00462592338719527	-0.381818924970841	-0.381818924970841	-0.00216196247167523
29	14	18	43	6.995	0	420	101290	286.43	64.9	-69.2	2172.1	2165.3	-1519.9	28.7	0	1.23194272411362	984.38867652	39.9763412793298	456208.297709338	123.03	123.03	0.7	0.69	0	0	0	0	0	101290	1.4456734455218e-05	1.59907309590204	1.59907309590204	0.600409954973968	-0.690604557942096	228.578059627886	-0.8214147921198	-21.7913388331947	-0.185619758951046	0.00280854932867543	-0.00323045437791344	1.06922403700929	-0.0027512361268761	-0.617856678477045	-0.000621712430293891	1.06160760324252	-0.127425374260565	0.00323045437791344	1.06922403700929	0.00280854932867544	0.00323045437791344	-0.00355878025251655	-0.618648276441976	-0.618648276441976	-0.00105048285350984
30	14	19	4	6.995	0	420	101290	286.43	64.3	-68.6	2172	2164.9	-1519.6	28.6	0	1.23194272411362	984.38867652	39.9763412793298	456208.297709338	123.03	123.03	0.64	0.64	0	0	0	0	0	101290	1.4456734455218e-05	1.59907309590204	1.59907309590204	0.594888161581338	-0.68226764609569	228.554731926435	-0.817519686252932	-21.7816556430377	-0.184953513791825	0.00278271992828411	-0.00319145664315658	1.06911491656632	-0.00273818990944522	-0.617582127943308	-0.000619480917337231	1.06149614943188	-0.127437722422013	0.00319145664315658	1.06911491656632	0.00278271992828408	0.00319145664315658	-0.00353519308641549	-0.618366445815069	-0.618366445815069	-0.00104539544077962
31	14	19	24	6.995	0	420	101290	286.43	62.4	-67	2172.5	2164.3	-1520.7	27.2	0	1.23194272411362	984.38867652	39.9763412793298	456208.297709338	123.03	123.03	0.43	0.43	0	0	0	0	0	101290	1.4456734455218e-05	1.59907309590204	1.59907309590204	0.577412510806783	-0.674003455404189	228.521479159144	-0.82656633519803	-21.7775250392579	-0.175835164617444	0.00270097373662882	-0.00315279907756098	1.06895936944976	-0.00276849063892282	-0.617465011636182	-0.000588940036035003	1.06133180481212	-0.127499917206998	0.00315279907756098	1.06895936944976	0.00270097373662884	0.00315279907756098	-0.00355817298261414	-0.618226289101177	-0.618226289101177	-0.00101788043630935
32	14	19	42	6.995	0	420	101290	286.43	63.1	-67.9	2171.9	2164.4	-1520.9	27.6	0	1.23194272411362	984.38867652	39.9763412793298	456208.297709338	123.03	123.03	0.28	0.27	0	0	0	0	0	101290	1.4456734455218e-05	1.59907309590204	1.59907309590204	0.5838591273636	-0.68342575370122	228.485896705875	-0.825165447297513	-21.7868809748832	-0.17845351424612	0.00273112920032972	-0.00319687394563649	1.06879292471577	-0.0027637985230289	-0.617730283419333	-0.000597709902563232	1.06117027137701	-0.127449716103366	0.00319687394563649	1.06879292471577	0.00273112920032972	0.00319687394563649	-0.00356477794094227	-0.618500060291283	-0.618500060291283	-0.00102738939665426
33	14	20	1	6.995	0	420	101290	286.43	63.5	-68	2171.6	2163.9	-1520.1	27.9	0	1.23194272411362	984.38867652	39.9763412793298	456208.297709338	123.03	123.03	0.26	0.26	0	0	0	0	0	101290	1.4456734455218e-05	1.59907309590204	1.59907309590204	0.587539717520798	-0.681322769912416	228.456460339241	-0.826221647377322	-21.7804026162977	-0.180400734098485	0.00274834596852201	-0.00318703677744944	1.06865522965081	-0.00276733614597489	-0.61754660048235	-0.00060423189566123	1.06103569791129	-0.127415858602819	0.00318703677744944	1.06865522965081	0.00274834596852197	0.00318703677744944	-0.00356474296875945	-0.61832122995152	-0.61832122995152	-0.00103385858613436
34	14	20	45	-3.995	0	420	101290	286.43	1338.2	-24.6	-387.2	-393.5	680.5	-5.5	0	1.23194272411362	984.38867652	39.9763412793298	456208.297709338	82.02	82.02	0.7	0.69	0	0	0	0	0	101290	1.4456734455218e-05	2.39860964385305	2.39860964385305	12.3013161065163	-0.436407762080044	-31.1672221507133	-0.598352785048413	-4.34575125394945	0.00979837025983708	0.0575421057005602	-0.00204139307995284	-0.145791521481117	-0.00200411511289418	-0.123216451077459	3.28185351688194e-05	-0.149446192706176	0.047245075403282	0.00204139307995284	-0.145791521481117	0.0575421057005602	0.00204139307995284	-0.00257093355358069	-0.139434864371938	-0.139434864371938	0.000211854239010984
35	14	21	13	-3.995	0	420	101290	286.43	1339.3	-25.9	-386.2	-392.3	680.9	-4.5	0	1.23194272411362	984.38867652	39.9763412793298	456208.297709338	82.02	82.02	0.47	0.46	0	0	0	0	0	101290	1.4456734455218e-05	2.39860964385305	2.39860964385305	12.3114232519622	-0.444825071323136	-31.0223170684566	-0.603939467308831	-4.3512073682567	0.00328047174236222	0.0575893840914689	-0.00208076689117648	-0.145113696158398	-0.00202282707451417	-0.123371150001149	1.09875698092698e-05	-0.148773308266311	0.0473394626108486	0.00208076689117648	-0.145113696158398	0.0575893840914689	0.00208076689117648	-0.00260219165814698	-0.139602888850443	-0.139602888850443	0.000192254053977622
36	14	21	35	-3.995	0	420	101290	286.43	1339.8	-26.4	-385.8	-392.8	680.9	-4.1	0	1.23194272411362	984.38867652	39.9763412793298	456208.297709338	82.02	82.02	0.3	0.29	0	0	0	0	0	101290	1.4456734455218e-05	2.39860964385305	2.39860964385305	12.3160253191118	-0.4478767188685	-31.0285005285093	-0.621678471225317	-4.35605626784585	0.000674069077911283	0.0576109112705183	-0.00209504164227593	-0.1451426206498	-0.00208224186579628	-0.123508632375103	2.25771828916505e-06	-0.14880366226114	0.0473589223292066	0.00209504164227593	-0.1451426206498	0.0576109112705183	0.00209504164227593	-0.00266608388782028	-0.139746438723711	-0.139746438723711	0.00018799674938594
37	14	21	55	-3.995	0	420	101290	286.43	1337.9	-26.5	-385	-391.9	680.1	-4.3	0	1.23194272411362	984.38867652	39.9763412793298	456208.297709338	82.02	82.02	0.48	0.47	0	0	0	0	0	101290	1.4456734455218e-05	2.39860964385305	2.39860964385305	12.2985386377996	-0.45194139933319	-30.9438108834809	-0.624280002154733	-4.3480468470484	0.00196903899665384	0.0575291134811021	-0.00211405507717289	-0.144746466249427	-0.00209095539998979	-0.123281538750048	6.59507385889859e-06	-0.148402771658418	0.0473049231446122	0.00211405507717289	-0.144746466249427	0.0575291134811021	0.00211405507717289	-0.00267982003967469	-0.139496290148907	-0.139496290148907	0.000193280555489381
38	14	22	16	-3.995	0	420	101290	286.43	1339.1	-27.6	-385.7	-392	681	-3.7	0	1.23194272411362	984.38867652	39.9763412793298	456208.297709338	82.02	82.02	0.71	0.72	0	0	0	0	0	101290	1.4456734455218e-05	2.39860964385305	2.39860964385305	12.3095833713896	-0.462086650058184	-30.9707451360456	-0.625288630430627	-4.34799577822059	-0.00195340978724954	0.0575807776463158	-0.00216151171388732	-0.144872457126714	-0.00209433368654836	-0.123280090779523	-6.54272558618651e-06	-0.148532055807142	0.0473476840615257	0.00216151171388732	-0.144872457126714	0.0575807776463158	0.00216151171388732	-0.00269744871284643	-0.139509403876704	-0.139509403876704	0.00018140285856636
39	14	22	57	3.995	0	420	101290	286.43	1169	-98.2	1338.1	1380.8	-222.8	50.1	0	1.23194272411362	984.38867652	39.9763412793298	456208.297709338	93.74	93.74	0.78	0.74	0	0	0	0	0	101290	1.4456734455218e-05	2.09871946862415	2.09871946862415	10.7602887152661	-0.900542507992106	161.23313725072	-0.289347625212894	-14.744524655956	-0.330780552274794	0.0503336118884381	-0.00421248521166604	0.754203383262318	-0.0009691372097855	-0.418056141450779	-0.00110791212213002	0.755877483526499	-0.00233360401745537	0.00421248521166604	0.754203383262318	0.0503336118884381	0.00421248521166604	-0.00207401121884034	-0.432242819367271	-0.432242819367271	-0.00124971520182611
40	14	23	29	4.5	0	420	101290	286.43	735.1	-82.5	1535.3	1562.4	-650.2	34.2	0	1.23194272411362	984.38867652	39.9763412793298	456208.297709338	103.61	103.61	0.54	0.5	0	0	0	0	0	101290	1.4456734455218e-05	1.89879319552965	1.89879319552965	6.76917171719442	-0.830022657393585	173.948312253356	-0.447953865223165	-16.2049061733542	-0.233387173079251	0.0316642862506158	-0.00388261313440284	0.813681404773792	-0.00150037090760841	-0.459462797579423	-0.000781703992045314	0.813657447821405	-0.0322740314055878	0.00388261313440284	0.813681404773792	0.0316642862506158	0.00388261313440284	-0.00252536657125131	-0.468387470648559	-0.468387470648559	-0.000977432237080063
41	14	24	5	1.507	0	420	101290	286.43	912.6	-148.3	871	925.4	-226.4	86	0	1.23194272411362	984.38867652	39.9763412793298	456208.297709338	93.74	93.74	0.36	0.33	0	0	0	0	0	101290	1.4456734455218e-05	2.09871946862415	2.09871946862415	8.40107253074764	-1.25503834429761	104.62525571288	-0.458182062404493	-11.8501053019768	-0.571764900047403	0.0392978604383864	-0.00587071728264697	0.489407594362162	-0.00153462909953293	-0.335989759854934	-0.00191506199325991	0.490271815316289	0.0264132989394271	0.00587071728264697	0.489407594362162	0.0392978604383864	0.00587071728264697	-0.00313784070469941	-0.347065978467703	-0.347065978467703	-0.00199692193196919
42	14	24	53	1.507	0	420	101290	286.43	-334.7	-157.2	1125.1	1149.7	-1301.9	91.1	0	1.23194272411362	984.38867652	39.9763412793298	456208.297709338	115.79	115.79	2.83	2.51	0	0	0	0	0	101290	1.4456734455218e-05	1.69905832100205	1.69905832100205	-3.07420352884078	-1.33931491127358	107.528776795585	-0.993146236146831	-13.7087776099463	-0.602205596678192	-0.0143802616622367	-0.00626493941977607	0.502989451425108	-0.00332643121401164	-0.388689279942704	-0.002017019670552	0.502437289488842	-0.0276034472758405	0.00626493941977607	0.502989451425108	-0.0143802616622367	0.00626493941977607	-0.00503741592434593	-0.384636160508136	-0.384636160508136	-0.0021488014234052
