run	hr	min	sec	AoA	AoS	dPb	pBar	temp	B1	B2	B3	B4	B5	B6	rpmWT	rho	q	V	Re	rpsM1	rpsM2	iM1	iM2	dPtQ	tM1	tM2	vM1	vM2	pInf	nu	J_M1	J_M2	FX	FY	FZ	MX	MY	MZ	CFX	CFY	CFZ	CMX	CMY	CMZ	CN	CT	CY	CL	CD	CYaw	CMroll	CMpitch	CMpitch25c	CMyaw
1	12	50	49	-5	0	231.99	101148	292.62	649.7	-63.6	-218.3	-188.1	198.5	10.6	356.483	1.20419201398114	541.946552015075	30.0016648522831	329158.11330751	0	0	0	0	0	0	0	0	0	101148	1.50373438604047e-05	Inf	Inf	5.99920023785253	-0.88168526119526	-20.0641920204989	-0.450744986943161	-3.73133129409331	-0.0715850431944455	0.0509727050220603	-0.00749131233487408	-0.170477080413799	-0.00274224594742114	-0.192166550367543	-0.000435509656862117	-0.174270927620441	0.0359206819254541	0.00749131233487408	-0.170477080413799	0.0509727050220603	0.00749131233487408	-0.00487318195996385	-0.206533358580773	-0.206533358580773	-9.12661786865872e-06
2	12	52	19	-4.002	0	231.82	101151	292.65	629.5	-59.4	-131.3	-103.5	205.8	9	356.419	1.20410428249471	541.547972992951	29.9917228825605	328998.960006295	0	0	0	0	0	0	0	0	0	101151	1.50396326833696e-05	Inf	Inf	5.81137225073447	-0.840243652011109	-9.35030400765845	-0.436427483063789	-3.45954094856574	-0.0623879991955744	0.049413150174046	-0.00714445469473521	-0.0795041095577758	-0.00265709518547678	-0.178300262259736	-0.000379835960674045	-0.0827588556584125	0.0437439670904193	0.00714445469473521	-0.0795041095577758	0.049413150174046	0.00714445469473521	-0.0046859010281787	-0.192227505309812	-0.192227505309812	-5.187467205012e-05
3	12	53	33	-2.998	0	231.86	101151	292.68	618.3	-61	-46.1	-15.7	221.7	8.8	356.449	1.20398086057154	541.641756051648	29.9958570344123	328984.483574307	0	0	0	0	0	0	0	0	0	101151	1.50423676788801e-05	Inf	Inf	5.70449998487935	-0.864807296937207	1.63056119967726	-0.40920575087452	-3.20025556736039	-0.0630871758344811	0.0484960343882459	-0.00735204216366735	0.0138619953056868	-0.00249093013475609	-0.164908471173123	-0.000384026243685301	0.0113066274173399	0.0491546583925295	0.00735204216366735	0.0138619953056868	0.0484960343882459	0.00735204216366735	-0.00457696476489935	-0.178577222416687	-0.178577222416687	-0.00014412037013758
4	12	54	17	-2	0	232.01	101152	292.69	617	-62	37.9	70.4	245.9	6.5	356.553	1.20395162795352	541.993443840579	30.005957877614	329078.574533534	0	0	0	0	0	0	0	0	0	101152	1.50431306657349e-05	Inf	Inf	5.69332491307375	-0.917083087155167	12.6597093971743	-0.435546750214216	-2.92890751639793	-0.0450161883218864	0.0483696246489576	-0.00779139876519956	0.107554970260007	-0.00264955354143264	-0.150828032723108	-0.000273846151145406	0.105801375122225	0.0520937735104516	0.00779139876519956	0.107554970260007	0.0483696246489576	0.00779139876519956	-0.00485218770565425	-0.164461155006431	-0.164461155006431	-0.000104340422635808
5	12	55	18	-1	0	231.65	101151	292.69	626	-64.9	119.8	155.6	279.2	6.3	356.499	1.2039397255529	541.149396645482	29.9827328195722	328820.612028913	0	0	0	0	0	0	0	0	0	101151	1.50432793852796e-05	Inf	Inf	5.77596822314884	-0.958749691936877	23.7580813405973	-0.415486558287778	-2.65517579163858	-0.0451444947592926	0.0491482883748885	-0.00815809653346059	0.202159878283603	-0.00253146399718014	-0.136945114143692	-0.000275055018927668	0.201271332450542	0.0526689792136311	0.00815809653346059	0.202159878283603	0.0491482883748885	0.00815809653346059	-0.00483491233136733	-0.150797705109483	-0.150797705109483	-0.00019063227162037
6	12	56	15	0	0	231.83	101151	292.69	648.2	-73.7	198.6	240.9	321.8	9.5	356.69	1.2039397255529	541.571418743743	29.9944217449252	328948.804465929	0	0	0	0	0	0	0	0	0	101151	1.50432793852796e-05	Inf	Inf	5.97914630385647	-1.06229481222363	34.8938304806427	-0.425175013771754	-2.39808795324027	-0.0649186751010224	0.0508375046205142	-0.00903212844782456	0.296683703347911	-0.0025884748727784	-0.123588998230748	-0.000395226327582998	0.296683703347911	0.0508375046205142	0.00903212844782456	0.296683703347911	0.0508375046205142	0.00903212844782456	-0.00513420708594995	-0.137917699809485	-0.137917699809485	-0.000395226327582998
7	12	57	7	1	0	231.95	101151	292.69	672.2	-73.2	280.4	319.7	368.8	12	356.796	1.2039397255529	541.852768475126	30.00221187793	329034.238849708	0	0	0	0	0	0	0	0	0	101151	1.50432793852796e-05	Inf	Inf	6.19516444273681	-1.02371047260866	45.8745111621274	-0.43752002655328	-2.11321686947636	-0.081169421272233	0.0526468417337197	-0.00869954683701188	0.389844071305611	-0.00266224852847865	-0.108851198059863	-0.00049390464258703	0.390703510244876	0.0458351061851321	0.00869954683701188	0.389844071305612	0.0526468417337197	0.00869954683701188	-0.00510484287910258	-0.12368986667463	-0.12368986667463	-0.000582921211242254
8	12	57	50	2	0	231.86	101153	292.69	699.9	-69.1	359.7	395.7	419.9	12.5	356.815	1.20396353035415	541.641756051648	29.996072918382	328973.417355982	0	0	0	0	0	0	0	0	0	101153	1.50429819491307e-05	Inf	Inf	6.44890451241871	-0.94935073149251	56.7043811261337	-0.397927408321348	-1.82138042781062	-0.0876098368626806	0.0548244887071178	-0.00807077672767157	0.482064619922221	-0.00242227625275233	-0.0938553360670001	-0.000533301358243214	0.483684306243564	0.0379672784965376	0.00807077672767157	0.482064619922221	0.0548244887071178	0.00807077672767157	-0.00467557536590053	-0.109307780945149	-0.109307780945149	-0.000696151712529633
9	12	59	52	3	0	231.92	101149	292.69	734.5	-73	432.7	473.6	478	11.1	357.082	1.20391592075165	541.782430917339	30.0005611241675	329009.629589201	0	0	0	0	0	0	0	0	0	101149	1.50435768331908e-05	Inf	Inf	6.7643661464445	-1.03344608910943	67.428183002028	-0.423242931640216	-1.51150131177553	-0.0755301776138062	0.0574914114496866	-0.00878342080156162	0.573082729164794	-0.00257570874211782	-0.0778671092273207	-0.000459650295917917	0.575306207195696	0.0274197888312288	0.00878342080156162	0.573082729164794	0.0574914114496866	0.00878342080156162	-0.00502036304056622	-0.0940712341967146	-0.0940712341967146	-0.000721765861577078
10	13	0	38	4	0	231.91	101150	292.69	775.3	-74.6	502.9	546.2	541.7	10	357.287	1.20392782315227	541.758985083254	29.9997636799393	329004.136827825	0	0	0	0	0	0	0	0	0	101150	1.50434281077649e-05	Inf	Inf	7.13782189706668	-1.09257676921103	77.6757755214667	-0.435559662421543	-1.20305671855409	-0.067314161518679	0.060668096027394	-0.00928638362061606	0.660207199940817	-0.00265077877972456	-0.0619798357630211	-0.00040966821844024	0.6628309608313	0.014466585386285	0.00928638362061606	0.660207199940817	0.060668096027394	0.00928638362061606	-0.00522676355169769	-0.0790793187100247	-0.0790793187100247	-0.000773270881710723
11	13	1	29	5	0	231.85	101150	292.69	823.8	-76.1	568.7	613.3	612.9	10.2	357.598	1.20392782315227	541.618310273092	29.9958685114505	328961.418939774	0	0	0	0	0	0	0	0	0	101150	1.50434281077649e-05	Inf	Inf	7.57937226901592	-1.12080979211023	87.5920619924821	-0.451270682254485	-0.882115488517941	-0.069453070761172	0.0644377965924291	-0.00952882519018674	0.744684292240976	-0.00274710802260228	-0.0454571863512768	-0.000422795221105865	0.7474666677057	-0.000710921280684187	0.00952882519018674	0.744684292240976	0.0644377965924291	0.00952882519018674	-0.00537531307542579	-0.0636191705921734	-0.0636191705921734	-0.000889675761234124
12	13	2	24	6	0	231.88	101150	292.69	881.6	-73.9	631.2	672.6	690.5	11.9	358.077	1.20392782315227	541.688647636526	29.9978161577644	328982.778564509	0	0	0	0	0	0	0	0	0	101150	1.50434281077649e-05	Inf	Inf	8.1129218886406	-1.03768243281096	97.0270576762776	-0.418197503959853	-0.581572880287294	-0.080489394504912	0.0689649366629677	-0.0088209530718252	0.824790991345268	-0.00254544465039912	-0.0299657294121247	-0.000489915163807531	0.827481498844104	-0.0176269953183177	0.0088209530718252	0.824790991345268	0.0689649366629677	0.0088209530718252	-0.00495288243726466	-0.0494037015198552	-0.0494037015198552	-0.00100494854719215
13	13	3	18	7	0	231.81	101148	292.69	950.8	-60.8	690.4	717.8	779.3	14.6	358.877	1.20390401835103	541.524527251414	29.9935679836525	328929.685373677	0	0	0	0	0	0	0	0	0	101148	1.50437255615575e-05	Inf	Inf	8.74584277859362	-0.791294700528521	105.619730861428	-0.372491032379721	-0.253590400452541	-0.101626474212339	0.0743676940094824	-0.00672854105087091	0.89810622314087	-0.00226792999742356	-0.013070286841403	-0.000618757793781196	0.900475017583083	-0.0356382472267036	0.00672854105087091	0.89810622314087	0.0743676940094824	0.00672854105087091	-0.00405794093286072	-0.0340310421443043	-0.0340310421443043	-0.00110868426408021
14	13	4	24	8	0	231.84	101145	292.69	1038.4	-54.4	732.4	751.8	882.4	18.7	359.651	1.20386831114915	541.59486450379	29.9959606508081	328946.168303454	0	0	0	0	0	0	0	0	0	101145	1.50441717643029e-05	Inf	Inf	9.55098165607184	-0.645981744711961	112.796460758626	-0.369187698407367	0.065589796102774	-0.124300633932473	0.0812034076295474	-0.00549220183076614	0.959006865679611	-0.00224752556041414	0.00338012051032825	-0.000756712244595576	0.960975206834784	-0.0530548176900781	0.00549220183076614	0.959006865679612	0.0812034076295474	0.00549220183076614	-0.00365326722985389	-0.0195073009669017	-0.0195073009669017	-0.00125778450206331
15	13	5	56	9	0	231.94	101147	292.69	1163.6	-64.4	737.7	764	1015.3	27.3	360.31	1.2038921159504	541.829322613275	30.0021559971065	329020.614423016	0	0	0	0	0	0	0	0	0	101147	1.5043874292865e-05	Inf	Inf	10.6986876687381	-0.696637832440374	117.132030782247	-0.305472862589664	0.409357057310684	-0.181890624049116	0.0909219592995537	-0.00592032206274731	0.995437390566769	-0.00185884032734474	0.0210867776558872	-0.0011068270493231	0.997405232518681	-0.065918156570121	0.00592032206274731	0.995437390566769	0.0909219592995537	0.00592032206274731	-0.0033109253898754	-0.0045398464572028	-0.0045398464572028	-0.00161114301382502
16	13	7	3	10	0	231.86	101146	292.69	1347.7	-46	718.2	728.7	1186.2	15.2	360.638	1.20388021354978	541.641756051648	29.9971108678692	328962.034333419	0	0	0	0	0	0	0	0	0	101146	1.50440230271134e-05	Inf	Inf	12.3950575684299	-0.549289654224639	118.016897740593	-0.421755837026255	0.645050025799769	-0.102059667090912	0.105374903966377	-0.00466971163660178	1.00330467988299	-0.00256732541444689	0.0332392870962372	-0.000621260819909351	1.00636038742779	-0.0704480069073788	0.00466971163660178	1.00330467988299	0.105374903966377	0.00466971163660178	-0.00371661763793702	0.00353905762799077	0.00353905762799077	-0.00125720635200198
17	13	8	18	11	0	231.98	101143	292.69	1511.3	-43.1	724.8	731.4	1338.1	16.5	360.881	1.2038445063479	541.923106116206	30.0053456809391	329042.581335217	0	0	0	0	0	0	0	0	0	101143	1.50444692475052e-05	Inf	Inf	13.8960464424876	-0.488139857203507	122.32442765995	-0.423595061704598	0.838647520404809	-0.110740923841269	0.118074025386375	-0.00414770043624224	1.03938466503204	-0.00257718251071874	0.043192887667953	-0.000673755664185675	1.04281782741814	-0.0824192707661953	0.00414770043624224	1.03938466503204	0.118074025386375	0.00414770043624224	-0.00354883685910659	0.00991337313255813	0.00991337313255813	-0.00133852687080788
18	13	8	59	12	0	231.92	101146	292.7	1694	-52.7	734.2	746.8	1501.6	26.8	361.047	1.20383908337507	541.782430917339	30.001518531043	328990.431682462	0	0	0	0	0	0	0	0	0	101146	1.50449347991967e-05	Inf	Inf	15.5781714163076	-0.52194847271595	127.850867081896	-0.357233274728924	0.965952723345278	-0.175539813938878	0.13240132824558	-0.00443612213632475	1.08662462150544	-0.00217399701190246	0.0497624088256994	-0.0010682740325985	1.09040705044588	-0.0964139207840205	0.00443612213632475	1.08662462150544	0.13240132824558	0.00443612213632475	-0.00312739469074926	0.0124447014515691	0.0124447014515691	-0.00169515159992061
19	13	9	45	13	0	231.95	101144	292.71	1870.2	-64.1	741.6	760.9	1665.3	38.2	361.318	1.20377415283594	541.852768475126	30.0042751291307	328994.215536941	0	0	0	0	0	0	0	0	0	101144	1.50461441052733e-05	Inf	Inf	17.196828948102	-0.561934235088453	133.156316263493	-0.303883137909808	1.15985260474138	-0.251393840627477	0.146139580364814	-0.00477534745250304	1.13156956089972	-0.00184908664205189	0.0597436767719146	-0.00152969656623842	1.13544175904729	-0.112153733400065	0.00477534745250304	1.13156956089972	0.146139580364814	0.00477534745250304	-0.00276903716495938	0.0185538022585947	0.0185538022585947	-0.00211338837212244
20	13	10	33	14	0	231.74	101147	292.71	2189.2	-144.7	674.7	759.2	1919.6	89	361.955	1.20380985759804	541.360407319791	29.9901953934447	328849.586097592	0	0	0	0	0	0	0	0	0	101147	1.50456978396173e-05	Inf	Inf	20.1296878898069	-1.22116987066198	135.189707365506	0.0559120479871245	1.12716692420404	-0.582272965671887	0.171218753930456	-0.0103870057368369	1.14989429374441	0.000340526461490837	0.0581128516469299	-0.00354627240031851	1.15715908440243	-0.112051782084866	0.0103870057368369	1.14989429374441	0.171218753930456	0.0103870057368369	-0.00165231360587455	0.00985433762138605	0.00985433762138605	-0.00384066379389786
21	13	12	31	-4.998	0	103.15	101147	292.63	307.7	-25	-89.7	-75.8	94.6	7.5	243.181	1.20413895847153	240.637672965742	19.9921040564378	219324.471497649	0	0	0	0	0	0	0	0	0	101147	1.50384041473759e-05	Inf	Inf	2.85119366908471	-0.305400763356296	-7.83226571057968	-0.101716058201262	-1.77019680522904	-0.0497948787210817	0.0545586832107557	-0.00584396061233821	-0.149873405079199	-0.00139366328175356	-0.205318637952479	-0.000682264878527139	-0.154056752740546	0.0412941206319209	0.00584396061233821	-0.149873405079199	0.0545586832107557	0.00584396061233821	-0.00308867858795668	-0.220696164762486	-0.220696164762486	-0.000410582058603834
22	13	13	15	-4	0	103.31	101144	292.61	296.2	-25.6	-51.1	-41.1	98.5	6.3	243.222	1.20418554484333	241.010900772458	20.0072148541861	219510.348156053	0	0	0	0	0	0	0	0	0	101144	1.50370269257219e-05	Inf	Inf	2.74403771818551	-0.3354163186634	-3.23664467113348	-0.188412188530845	-1.62678970348894	-0.043344440993831	0.0524268991826281	-0.00640838039733734	-0.061838524572363	-0.00257753317604047	-0.188393177088226	-0.000592964476076017	-0.065345004650817	0.0479855524754785	0.00640838039733734	-0.061838524572363	0.0524268991826281	0.00640838039733734	-0.00441443871905631	-0.20316985424211	-0.20316985424211	-0.000283584365813685
23	13	13	55	-3	0	103.26	101143	292.59	288.2	-29.8	-14.9	-2.8	107	7	243.21	1.2042559505211	240.894266828351	20.0017884403309	219475.252876491	0	0	0	0	0	0	0	0	0	101143	1.50353523901568e-05	Inf	Inf	2.66722704289115	-0.390203361017844	1.51527189282216	-0.202664300850092	-1.49448223477495	-0.0499463427634903	0.0509840466430059	-0.00745873749721251	0.0289644232073849	-0.00277384855659882	-0.173154879262972	-0.000683611224082213	0.0262564296378287	0.0524300555645943	0.00745873749721251	0.0289644232073848	0.0509840466430059	0.00745873749721251	-0.00490521075982105	-0.187524884145731	-0.187524884145731	-0.000425955462969813
24	13	14	33	-2	0	103.23	101143	292.57	287	-37.4	17	36.7	120.4	7.5	243.277	1.20433827310718	240.824286572944	19.9981994261192	219462.48251218	0	0	0	0	0	0	0	0	0	101143	1.50335292661101e-05	Inf	Inf	2.65761027231179	-0.513075756888919	6.21983105809895	-0.215940114469705	-1.36409837101638	-0.0501966004551929	0.0508149839193468	-0.00981029333282857	0.11892662309866	-0.00295641229979032	-0.158094167881757	-0.000687236122652944	0.117080758849427	0.0549345080947893	0.00981029333282857	0.11892662309866	0.0508149839193468	0.00981029333282857	-0.00574197142391456	-0.172416521934022	-0.172416521934022	-0.000486425564200762
25	13	15	16	-1	0	103.26	101142	292.55	290.4	-41.1	51	73.9	137	7.6	243.222	1.2044086988526	240.894266828351	20.0005200433615	219512.398330736	0	0	0	0	0	0	0	0	0	101142	1.50318548443694e-05	Inf	Inf	2.68935674768775	-0.563684847257193	11.0200287616624	-0.208255691435605	-1.2526287542753	-0.0522637294336458	0.0514070559644482	-0.0107748362184288	0.210647856877923	-0.00285037743040614	-0.145133060575009	-0.000715329092710921	0.209718597354589	0.0550755384342054	0.0107748362184288	0.210647856877923	0.0514070559644482	0.0107748362184288	-0.00589888455183175	-0.159622291890638	-0.159622291890638	-0.000612270413900146
26	13	16	5	-0	0	103.27	101140	292.54	297.3	-42.6	85.8	109.3	159	7.6	243.455	1.20442605258102	240.917593598662	20.0013442915037	219530.415718685	0	0	0	0	0	0	0	0	0	101140	1.50312405759467e-05	Inf	Inf	2.75236902666593	-0.590151728864041	15.8841273871227	-0.233460576024835	-1.11452865778309	-0.0510443996712095	0.0526064416222895	-0.0112796584222526	0.303595706831468	-0.00319504509165401	-0.129119895082936	-0.000698572587298742	0.303595706831468	0.0526064416222895	0.0112796584222526	0.303595706831468	0.0526064416222895	0.0112796584222526	-0.00637425029948255	-0.143947176806376	-0.143947176806376	-0.000698572587298742
27	13	16	43	1	0	103.22	101144	292.51	306.5	-42	119.9	141.9	183	8	243.432	1.20459721813479	240.800959839652	19.9950814115856	219510.287716389	0	0	0	0	0	0	0	0	0	101144	1.50279118080363e-05	Inf	Inf	2.83286472652186	-0.575736832179203	20.5345022485034	-0.248119519434273	-0.984469208143386	-0.053648242763336	0.0541711935182886	-0.0110094742821972	0.392669118539651	-0.00339730605539612	-0.114107545709965	-0.000734563328257303	0.393554730817436	0.0473099219310079	0.0110094742821972	0.392669118539652	0.0541711935182886	0.0110094742821972	-0.00648654912743102	-0.12937585739996	-0.12937585739996	-0.000847657342451805
28	13	17	25	2	0	103.27	101141	292.49	320.3	-39.8	154.5	173.7	211.5	8	243.677	1.20464385495467	240.917593598662	19.9995360652916	219579.312952745	0	0	0	0	0	0	0	0	0	101141	1.50265347292242e-05	Inf	Inf	2.95933379935994	-0.537749376614001	25.3508044358787	-0.239718163914164	-0.850954145365017	-0.0568670151324728	0.0565621903344404	-0.0102780844117167	0.48453372375346	-0.00328068385693003	-0.0985843739437566	-0.000778258499442294	0.486212550875676	0.0396177510819635	0.0102780844117167	0.484533723753461	0.0565621903344404	0.0102780844117167	-0.00614666840456069	-0.114526595183603	-0.114526595183603	-0.000992300039108607
29	13	18	15	3	0	103.32	101142	292.49	337.2	-41	185	206.5	243	7.5	243.847	1.20465576549396	241.034227589044	20.004277714485	219633.54410046	0	0	0	0	0	0	0	0	0	101142	1.50263861605314e-05	Inf	Inf	3.11252619745475	-0.567644835970442	30.042199692181	-0.251043869123405	-0.714403545451331	-0.0504754279309256	0.059461392905912	-0.0108442308534629	0.573923214241672	-0.00343402029251838	-0.082724723501898	-0.000690451610683001	0.576248641280279	0.029343082906128	0.0108442308534629	0.573923214241672	0.059461392905912	0.0108442308534629	-0.00644546849908206	-0.0994840935922436	-0.0994840935922436	-0.00102683512808014
30	13	19	14	4	0	103.29	101136	292.45	357.5	-39.2	216	237.6	278.9	7.5	243.908	1.20474905989912	240.964247167051	20.0005990862128	219633.411114797	0	0	0	0	0	0	0	0	0	101136	1.50236320237413e-05	Inf	Inf	3.29790672756661	-0.558965396899344	34.6514519085602	-0.230074197880462	-0.567686932406593	-0.0492165921263676	0.0630211814236546	-0.0106815209153993	0.662170163597603	-0.00314809089178077	-0.0657546891628693	-0.000673427558695682	0.664953285746938	0.0166770093620008	0.0106815209153993	0.662170163597603	0.0630211814236546	0.0106815209153993	-0.00609673102978795	-0.0835173962134946	-0.0835173962134946	-0.00109707358101345
31	13	19	51	5	0	103.25	101133	292.43	380.5	-35.4	247.2	265.2	316.8	7.3	244.05	1.20479571667264	240.870940067294	19.9963391577838	219606.760556743	0	0	0	0	0	0	0	0	0	101133	1.50222549565616e-05	Inf	Inf	3.50535968772551	-0.507605927985199	39.1991031141915	-0.241830201232846	-0.431289543018162	-0.0485283681445305	0.0670114416764203	-0.00970382730105982	0.749363445155907	-0.00331022935171867	-0.0499752484607873	-0.00066426785324618	0.752352322979979	0.00144511525902702	0.00970382730105982	0.749363445155907	0.0670114416764203	0.00970382730105982	-0.00596438299967582	-0.0688626222079817	-0.0688626222079817	-0.00118157034388488
32	13	20	43	6	0	103.22	101131	292.42	405.8	-33.3	274.5	290.1	358	7.4	244.073	1.20481309075748	240.800959839652	19.9932900200149	219582.252661361	0	0	0	0	0	0	0	0	0	101131	1.50216406911397e-05	Inf	Inf	3.74043245306962	-0.445780510774064	43.4657973265662	-0.218556431575119	-0.287654195639362	-0.0491265706537716	0.0715260733632344	-0.00852439655509864	0.831170686111461	-0.00299252187062457	-0.033341331558235	-0.000672651617024895	0.834093956658347	-0.0157467484828981	0.00852439655509864	0.831170686111461	0.0715260733632344	0.00852439655509864	-0.0052952819157587	-0.0535011676471819	-0.0535011676471819	-0.00122247444230938
33	13	21	27	7	0	103.38	101129	292.41	435.6	-28.6	300.9	312.2	403.5	8	244.134	1.20483046603066	241.174188682913	20.0086340184298	219759.759163395	0	0	0	0	0	0	0	0	0	101129	1.5021026422051e-05	Inf	Inf	4.01138793651819	-0.359227914892201	47.5619305407443	-0.18401128904174	-0.139036500316116	-0.056834317815022	0.0765886860736618	-0.00685867197039425	0.908091120801488	-0.00251562323318416	-0.0160904593512736	-0.000776983472493421	0.910656160175232	-0.0346506630224435	0.00685867197039425	0.908091120801488	0.0765886860736618	0.00685867197039425	-0.00432090943650999	-0.0376772078600556	-0.0376772078600556	-0.00129777835145283
34	13	22	32	8	0	103.38	101125	292.39	473.4	-26.1	318.1	326.2	456.1	11.9	244.357	1.20486522014252	241.174188682913	20.0083454436964	219774.564736599	0	0	0	0	0	0	0	0	0	101125	1.50197978728739e-05	Inf	Inf	4.35878870751275	-0.278656773681267	50.7460772218346	-0.170757230659176	0.00819888072421993	-0.07821930073668	0.0832215445786273	-0.00532034211089004	0.968885442973726	-0.00233442664804641	0.00094884261844233	-0.00106933814355258	0.971038516871107	-0.0524311533461524	0.00532034211089004	0.968885442973726	0.0832215445786273	0.00532034211089004	-0.00364784572079074	-0.0225073967483408	-0.0225073967483408	-0.00156661341903386
35	13	23	19	9	0	103.23	101123	292.37	519.8	-38.3	319.2	335.3	516.6	21.6	244.392	1.20492380986487	240.824286572944	19.9933397396846	219632.048502332	0	0	0	0	0	0	0	0	0	101123	1.50182722733563e-05	Inf	Inf	4.78176670360068	-0.351105720662045	52.8520852912678	-0.110541587543133	0.177112460577877	-0.142817705914176	0.0914300342232533	-0.00671333631394819	1.01056121439639	-0.00151341268783442	0.020526706630173	-0.00195530146600781	1.0124223374093	-0.0677822241819833	0.00671333631394819	1.01056121439639	0.0914300342232533	0.00671333631394819	-0.00305778149584302	-0.00524311990828532	-0.00524311990828532	-0.00240957087283661
36	13	24	5	10	0	103.31	101121	292.37	578	-49.4	314.4	338.1	585.1	27.7	244.733	1.20489997900919	241.010900772458	20.001282429262	219714.95543258	0	0	0	0	0	0	0	0	0	101121	1.50185693090318e-05	Inf	Inf	5.31982252925913	-0.450452080458129	54.4598664010606	-0.104717317757598	0.305369483701484	-0.181494041616118	0.101639200351577	-0.00860622492623727	1.04049660337605	-0.00143256316234549	0.0353638378070204	-0.00248289092742336	1.04233858390818	-0.080585266528688	0.00860622492623727	1.04049660337605	0.101639200351577	0.00860622492623727	-0.00336848818323868	0.0067165274913297	0.0067165274913297	-0.00303010206972218
37	13	24	54	11	0	103.31	101121	292.37	660.3	-17	316.1	314.6	668.1	9.1	245.065	1.20489997900919	241.010900772458	20.001282429262	219714.95543258	0	0	0	0	0	0	0	0	0	101121	1.50185693090318e-05	Inf	Inf	6.07318486176934	-0.164240886661309	55.1618093534977	-0.212817628974629	0.393582678412274	-0.0602268925716617	0.116032752886496	-0.00313794535315341	1.05390775007986	-0.00291140665264645	0.0455795184060715	-0.000823921291418308	1.05668458933361	-0.0871941746086431	0.00313794535315341	1.05390775007986	0.116032752886496	0.00313794535315341	-0.00356889389120532	0.0128753425838959	0.0128753425838959	-0.00148976059466389
38	13	25	36	12	0	103.21	101122	292.37	752.9	-8.9	319.5	309.6	756.9	6	245.263	1.20491189443703	240.777633115615	19.9915018981578	219609.687604044	0	0	0	0	0	0	0	0	0	101122	1.50184207897254e-05	Inf	Inf	6.926729345388	-0.0811198821284368	57.2288537116678	-0.254701239539648	0.425736989543429	-0.0375117853289204	0.132468573172708	-0.00155135771959202	1.09445947971706	-0.00348776225315231	0.0493509690723666	-0.000513669227346634	1.09808467921417	-0.0979771039379848	0.00155135771959202	1.09445947971706	0.132468573172708	0.00155135771959202	-0.00373244815445519	0.0120143085159217	0.0120143085159217	-0.0012784639289823
39	13	26	26	13	0	103.1	101122	292.35	901.3	-64.4	277.1	312	883.9	38	245.943	1.2049943238466	240.521039762023	19.980163305456	219511.770795067	0	0	0	0	0	0	0	0	0	101122	1.50165981947414e-05	Inf	Inf	8.29019391106925	-0.570530683444479	57.8577902039441	-0.058532821359863	0.414276270281437	-0.248061540203315	0.158712962253722	-0.0109226172267465	1.10766785086429	-0.00080237675970182	0.0480736864075099	-0.00340046507601739	1.11498104380418	-0.0945258916013104	0.0109226172267465	1.10766785086429	0.158712962253722	0.0109226172267465	-0.00301654217514413	0.00333996688711314	0.00333996688711314	-0.0039918857191904
40	13	27	3	14	0	103.2	101118	292.35	982.6	-56.2	283.4	312.7	969.2	31.3	246.643	1.20494665887464	240.754306400832	19.9902450991264	219613.846844775	0	0	0	0	0	0	0	0	0	101118	1.50171922174948e-05	Inf	Inf	9.03607397021268	-0.522933791853987	60.3704583543865	-0.0938166435039274	0.493545418988223	-0.203299038295585	0.17282497168582	-0.0100016907861365	1.1546522073802	-0.00128480666978285	0.0572167917141308	-0.00278415375574242	1.16216424691335	-0.111644319347237	0.0100016907861365	1.1546522073802	0.17282497168582	0.0100016907861365	-0.00330836436986754	0.00850556044648614	0.00850556044648614	-0.00350181827018489
41	13	28	54	-4.997	0	410.45	101116	292.94	1125.6	-221.2	-443.3	-298.2	342.6	33.7	470.16	1.20249603432349	961.835888417246	39.9966539229931	437827.935153094	0	0	0	0	0	0	0	0	0	101116	1.50712936726911e-05	Inf	Inf	10.3802007205383	-3.10857347227525	-37.0845045159213	-0.944229325628047	-6.46534485719833	-0.226913656728624	0.0496941830027321	-0.0148819876578142	-0.177538392907326	-0.00323674482615926	-0.187612235497461	-0.000777842399580981	-0.181192157013528	0.0340410783790736	0.0148819876578142	-0.177538392907326	0.0496941830027321	0.0148819876578142	-0.00747078572991568	-0.201618688484494	-0.201618688484494	-0.000124153825608434
42	13	29	32	-4	0	410.53	101115	293.04	1093.9	-248.7	-300.9	-129.1	353.2	30.8	470.149	1.20207379395674	962.024777239231	40.0076057582147	437678.450856977	0	0	0	0	0	0	0	0	0	101115	1.50805693212914e-05	Inf	Inf	10.0859311653863	-3.58880834857719	-17.6992973776464	-1.00535693739388	-6.03951025019126	-0.210302243506838	0.0482759160492578	-0.0171776911533335	-0.0847169964104523	-0.00344560887268081	-0.175220899815331	-0.000720758219513782	-0.0878781877354214	0.042248759408314	0.0171776911533335	-0.0847169964104523	0.0482759160492578	0.0171776911533335	-0.00831728248129185	-0.188827610051672	-0.188827610051672	-0.000138818191687519
43	13	30	28	-3	0	410.28	101114	293.13	1072.1	-232.9	-135.5	24.1	375.8	26.9	469.873	1.20169283549089	961.434501637185	40.0016691364077	437370.903012027	0	0	0	0	0	0	0	0	0	101114	1.50889342465022e-05	Inf	Inf	9.88056915872236	-3.38177194117385	2.38389107440328	-0.971248413584873	-5.59111545422698	-0.186475416842795	0.0473219944701867	-0.0161966573513013	0.011417407077289	-0.00333075412969055	-0.16231146531841	-0.000639490120187084	0.00892511808577613	0.047854682238626	0.0161966573513013	0.011417407077289	0.0473219944701867	0.0161966573513013	-0.00791847744708417	-0.175649309926155	-0.175649309926155	-0.00022419263202124
44	13	31	6	-2	0	410.35	101116	293.18	1067.2	-209.2	30.3	170.9	411.9	22.4	469.787	1.20151165937213	961.599778222702	40.0081233311173	437317.817206413	0	0	0	0	0	0	0	0	0	101116	1.50932007521146e-05	Inf	Inf	9.83525266541045	-3.06755653864413	22.4526030288183	-0.950986299010608	-5.13103040468254	-0.15337447177108	0.0470968594291896	-0.0146892290423517	0.107516006415024	-0.0032607076405341	-0.148929480562561	-0.000525884876035699	0.105806853878554	0.0508204238062871	0.0146892290423517	0.107516006415024	0.0470968594291896	0.0146892290423517	-0.00741475513111617	-0.162203870190731	-0.162203870190731	-0.000266793298929911
45	13	31	51	-1	0	410.11	101118	293.24	1074.7	-187.2	192.3	315.1	459.5	18.7	469.791	1.20128957755422	961.033117531779	40.0000302901124	437079.348681831	0	0	0	0	0	0	0	0	0	101118	1.50983807414361e-05	Inf	Inf	9.90309761358766	-2.75553878224587	42.4408894774752	-0.897914397312087	-4.65780322243637	-0.130057599491973	0.0474497017641425	-0.0132028884818522	0.203351277235525	-0.00308055194860604	-0.135273654923304	-0.000446199763301899	0.202492194370533	0.0509914440845911	0.0132028884818522	0.203351277235525	0.0474497017641425	0.0132028884818522	-0.00680857656616397	-0.148647494210926	-0.148647494210926	-0.000327305759424673
46	13	32	31	-0	0	409.85	101118	293.27	1095.7	-174.2	347.5	459.8	518.7	17.4	469.971	1.20116669186074	960.419241132272	39.9892982975953	436882.809963865	0	0	0	0	0	0	0	0	0	101118	1.51011202774225e-05	Inf	Inf	10.0942751910187	-2.56712202326119	62.3208161551574	-0.873353254892468	-4.17434513950643	-0.120019657155466	0.0483966241803126	-0.0123079703528706	0.298794817953355	-0.00299820308406245	-0.121310374408959	-0.000412024921434504	0.298794817953355	0.0483966241803126	0.0123079703528706	0.298794817953355	0.0483966241803126	0.0123079703528706	-0.0064672410618837	-0.134951106590336	-0.134951106590336	-0.000412024921434504
47	13	33	7	1	0	410.05	101119	293.3	1134.9	-173.2	493.7	601.9	593.4	20.7	470.224	1.20105570895206	960.891453191986	40.0009759218085	436935.438685014	0	0	0	0	0	0	0	0	0	101119	1.51037106316003e-05	Inf	Inf	10.4492863936724	-2.51085600008564	81.8224475544842	-0.883251640496476	-3.67796936699504	-0.141485327408836	0.0500740920182659	-0.0120322890632071	0.39210187314648	-0.00303069392068046	-0.106832703414036	-0.000485477413211954	0.392916067537892	0.0432233442365396	0.0120322890632071	0.39210187314648	0.0500740920182659	0.0120322890632071	-0.00641257945324937	-0.120946234884785	-0.120946234884785	-0.000597318415579941
48	13	34	0	2	0	410.12	101116	293.33	1189.7	-164.8	636.2	735.5	682.6	23.1	470.624	1.20089724301886	961.05672828747	40.0070552244646	436909.621327523	0	0	0	0	0	0	0	0	0	101116	1.51068987029214e-05	Inf	Inf	10.9514826204927	-2.34463412192579	101.00531637149	-0.836375327032557	-3.15517955305984	-0.160166699211694	0.052471644542738	-0.0112338039050762	0.483944981810435	-0.00286935408662292	-0.0916316477922388	-0.000549484134777792	0.485481409588966	0.0355502439377338	0.0112338039050762	0.483944981810435	0.052471644542738	0.0112338039050762	-0.00601278159712237	-0.106420936558688	-0.106420936558688	-0.00075899245541108
49	13	34	45	3	0	409.83	101119	293.37	1253.5	-156.4	772.1	861.7	780.8	26.8	470.705	1.20076912920762	960.372020129907	39.9949345249732	436684.600926899	0	0	0	0	0	0	0	0	0	101119	1.51101039723773e-05	Inf	Inf	11.5346970930145	-2.16989057393319	119.541438669368	-0.824629702304179	-2.6089174396463	-0.180801162915258	0.0553053922223969	-0.0104039705857325	0.573165129446081	-0.00283107536362129	-0.0758213090720739	-0.000620717052288102	0.575274087143635	0.0252324529698001	0.0104039705857325	0.573165129446081	0.0553053922223969	0.0104039705857325	-0.00572308090596356	-0.0914092980334748	-0.0914092980334748	-0.000919389293010034
50	13	35	41	4	0	409.84	101120	293.39	1332.9	-164.3	895.5	988.2	892.8	31	471.241	1.20069914840069	960.395630626462	39.9965916718525	436654.220456726	0	0	0	0	0	0	0	0	0	101120	1.51117813809925e-05	Inf	Inf	12.2625040706201	-2.26424008267796	137.552352475168	-0.861944917158843	-2.04891215188083	-0.207211518766482	0.0587935616559932	-0.0108560811183621	0.659505812972726	-0.00295911124954392	-0.0595447674937996	-0.000711370209407454	0.662000521498951	0.0126455435680233	0.0108560811183621	0.659505812972726	0.0587935616559932	0.0108560811183621	-0.00595464544881146	-0.0761159073640258	-0.0761159073640258	-0.00112501241623627
51	13	36	25	5	0	409.64	101118	293.4	1419.4	-153	1018.5	1098.6	1011.5	33.5	471.614	1.20063447758009	959.923422453789	39.9878345894093	436523.59625062	0	0	0	0	0	0	0	0	0	101118	1.51129937419738e-05	Inf	Inf	13.052831815055	-2.06009404585363	154.806246405331	-0.857474072313306	-1.48108926475193	-0.22393441295149	0.0626136374966466	-0.00988214539371476	0.742596114925816	-0.0029452106610667	-0.0430640713623325	-0.000769159140433412	0.745227450594779	-0.00234614225548692	0.00988214539371476	0.742596114925816	0.0626136374966466	0.00988214539371476	-0.00564167966851015	-0.0607119109474141	-0.0607119109474141	-0.00125793703954193
52	13	37	24	6	0	409.9	101116	293.41	1520	-133.5	1136.9	1195.3	1141.2	38.1	472.148	1.20056981116772	960.537293800143	40.0016959267734	436639.88315761	0	0	0	0	0	0	0	0	0	101116	1.51142061715063e-05	Inf	Inf	13.979317039093	-1.66542413033764	171.249763437399	-0.795623428484372	-0.920671063014762	-0.253299891430423	0.0670150744031903	-0.00798383223553296	0.820949664865079	-0.00273102255757149	-0.0267522739488601	-0.000869466248178086	0.8234573994467	-0.0191646480747352	0.00798383223553296	0.820949664865079	0.0670150744031903	0.00798383223553296	-0.0048631173764772	-0.0456406715908778	-0.0456406715908778	-0.0013730374071502
53	13	38	14	7	0	409.74	101114	293.41	1640.1	-128.7	1233	1286.4	1285.9	38.8	472.692	1.20054606478118	960.159526077383	39.9942245912504	436549.694736392	0	0	0	0	0	0	0	0	0	101114	1.51145051252846e-05	Inf	Inf	15.0799449348154	-1.57594118594908	186.301509930387	-0.769337057860858	-0.361974026528083	-0.261870467062041	0.0723197875613503	-0.00755783474473374	0.893457216108149	-0.00264183209973673	-0.0105221491819918	-0.00089923889508345	0.895611086529613	-0.0371043174561549	0.00755783474473374	0.893457216108148	0.0723197875613502	0.00755783474473374	-0.0046268706129288	-0.030905695973667	-0.030905695973667	-0.00145640978833948
54	13	38	58	8	0	409.69	101113	293.44	1794.3	-130.4	1301.9	1355.3	1456.5	41.2	473.057	1.20041145431368	960.0414741499	39.9940080784537	436463.870593485	0	0	0	0	0	0	0	0	0	101113	1.5117395328416e-05	Inf	Inf	16.4973251633104	-1.5805690838071	198.933510173684	-0.794945340227879	0.185996323712825	-0.273951251688963	0.0791269307870668	-0.00758096111100027	0.954154563537907	-0.00273010423339303	0.00540735405113782	-0.000940838865430622	0.955881137242727	-0.0544357764668117	0.00758096111100027	0.954154563537907	0.0791269307870668	0.00758096111100027	-0.00468851759898998	-0.0168948062644131	-0.0168948062644131	-0.00158419821942427
55	13	39	52	9	0	409.58	101110	293.46	2085.3	-79	1307.3	1320.6	1722.6	12.7	473.66	1.20029402989467	959.781760723866	39.9905540490645	436360.484087817	0	0	0	0	0	0	0	0	0	101110	1.51196711764914e-05	Inf	Inf	19.1702758503998	-1.10856638270312	203.671128886842	-0.945295195854569	0.64896338307415	-0.0896942018314978	0.0919722160355289	-0.00531851015787909	0.977142176375619	-0.00324733365686874	0.018872009286359	-0.000308122797736307	0.979499559124039	-0.0620188281925778	0.00531851015787909	0.977142176375619	0.0919722160355289	0.00531851015787909	-0.00463973479711125	-0.00705063280525259	-0.00705063280525259	-0.00103014372571035
56	13	40	50	10	0	409.62	101105	293.48	2419	-80.1	1276.6	1285.8	2014.9	26.8	474.341	1.20015288075745	959.876201840129	39.9948731836099	436333.295941564	0	0	0	0	0	0	0	0	0	101105	1.51222463755079e-05	Inf	Inf	22.24264168392	-0.948969120324419	206.886645999002	-0.863160960846256	1.00771474878303	-0.180429084606457	0.106701843392798	-0.00455237088743193	0.992471434605075	-0.00296488956104289	0.0293017009479704	-0.000619759620423212	0.995922144101088	-0.0672600533717338	0.00455237088743193	0.992471434605075	0.106701843392798	0.00455237088743193	-0.00407583218465278	-0.00077253033637938	-0.00077253033637938	-0.00131810491053786
57	13	41	35	11	0	409.63	101105	293.49	2681.4	-106.3	1285.4	1310.9	2258.8	50.7	474.934	1.20011198829499	959.899812142332	39.9960464549414	436319.731164151	0	0	0	0	0	0	0	0	0	101105	1.51231601452834e-05	Inf	Inf	24.6522048190601	-1.07316210371103	214.969079824436	-0.735431481022737	1.43502925349355	-0.336600090625798	0.118258030471888	-0.00514801972859696	1.03121891850975	-0.00252608677588303	0.0417258592567343	-0.00115616622300204	1.03483721848422	-0.0806805484819443	0.00514801972859696	1.03121891850975	0.118258030471888	0.00514801972859696	-0.0036833944982387	0.00839448234180346	0.00839448234180346	-0.00183774899686724
58	13	42	22	12	0	409.7	101106	293.53	2968.5	-120.8	1306.7	1341.9	2515.3	67.4	475.572	1.199960314647	960.065084516887	40.0020173658313	436283.73413858	0	0	0	0	0	0	0	0	0	101106	1.51266658168579e-05	Inf	Inf	27.2943913426	-1.10596951920205	224.472209989648	-0.610155512009829	1.75451656842883	-0.443222997561854	0.130910210012153	-0.00530448546034471	1.07662060614529	-0.00209542354201604	0.0510067014702223	-0.00152213638191154	1.08031162591053	-0.0957925027579631	0.00530448546034471	1.07662060614529	0.130910210012153	0.00530448546034471	-0.00319557733992539	0.0141092701962839	0.0141092701962839	-0.00215327193783921
59	13	43	11	13	0	409.53	101108	293.53	3301.8	-146.8	1319.9	1373.7	2803.7	91.2	476.341	1.19998405132563	959.663709536773	39.9932591023432	436196.840093543	0	0	0	0	0	0	0	0	0	101108	1.51263665988768e-05	Inf	Inf	30.3579206484555	-1.2255676385784	234.289135059786	-0.451003109925712	2.04076787241533	-0.600166105359561	0.145664502746886	-0.00588056417708835	1.1241748324162	-0.00154950299586173	0.0593533146781801	-0.00206197952475868	1.12812968776469	-0.11095318284047	0.00588056417708835	1.1241748324162	0.145664502746886	0.00588056417708835	-0.0026609188843265	0.0182973422016506	0.0182973422016506	-0.00260770763167769
60	13	44	18	14	0	409.63	101108	293.55	3628.3	-162.1	1323.2	1387.4	3094	103.9	477.149	1.1999022946197	959.899812142332	39.9995411359773	436212.64935012	0	0	0	0	0	0	0	0	0	101108	1.51281943106825e-05	Inf	Inf	33.3590683551071	-1.31296029429874	242.460595902479	-0.374756160930284	2.39908692771733	-0.682289660888148	0.160025350714349	-0.0062983453054679	1.16309728679111	-0.00128722607983845	0.0697574375204567	-0.00234355332096258	1.16726196280544	-0.126106786493386	0.0062983453054679	1.16309728679111	0.160025350714349	0.0062983453054679	-0.00240450917781237	0.0246538174168571	0.0246538174168571	-0.00285564318991308
